stop_id,stop_name,stop_desc,stop_lat,stop_lon,zone_id,stop_url,location_type,parent_station,wheelchair_boarding
ABCH,"Abbé Chérel",,47.21004362,-1.65163899,,,1,,
ABDU,"Abel Durand",,47.22005849,-1.60325298,,,1,,
ABOL,"Adrienne Bolland",,47.26794667,-1.47660122,,,1,,
ACHA,"Angle Chaillou",,47.26971087,-1.57189622,,,1,,
ADBO,"Audubon",,47.21393466,-1.72304070,,,1,,
ADEL,"Aimé Delrue",,47.20898690,-1.55013941,,,1,,
ADPI,"Avenue des Pins",,47.25325890,-1.59659981,,,1,,
AECL,"Aéroclub",,47.15938736,-1.59803572,,,1,,
AEPO,"D2A - Aéroport",,47.15686225,-1.59741579,,,1,,
AESP,"Aérospatiale",,47.16134225,-1.58704692,,,1,,
AFRA,"Anatole France",,47.22367057,-1.57162985,,,1,,
AGBE,"L'Angebert",,47.14056117,-1.45575443,,,1,,
AGDR,"Angebardière",,47.16942145,-1.50521068,,,1,,
AGVI,"Angevinière",,47.24597226,-1.61104700,,,1,,
AIBU,"Airbus",,47.15798334,-1.59127862,,,1,,
AIGU,"Aiguillon",,47.25448411,-1.49660446,,,1,,
ALCH,"Champ de l'Alouette",,47.28291888,-1.58016180,,,1,,
ALDE,"Allende",,47.17527311,-1.62312916,,,1,,
ALNE,"Aulne",,47.27628919,-1.63841208,,,1,,
AMCA,"Armoricaine",,47.25826258,-1.64752203,,,1,,
AMER,"Américains",,47.23607974,-1.56826271,,,1,,
AMPE,"Ampère",,47.26072504,-1.55319084,,,1,,
ANGE,"Les Anges",,47.27515795,-1.63710377,,,1,,
ANTO,"Antons",,47.25783878,-1.62331809,,,1,,
APAV,"Apave",,47.22537146,-1.64749042,,,1,,
APER,"Ampère",,47.30219818,-1.50783344,,,1,,
APRE,"Ambroise Paré",,47.22908815,-1.60856584,,,1,,
AQUI,"Aquitaine",,47.20988552,-1.61497360,,,1,,
ARAG,"Arago",,47.30350530,-1.50484787,,,1,,
ARBO,"Arbois",,47.25838461,-1.58210153,,,1,,
ARCA,"Arcades",,47.21182995,-1.65277809,,,1,,
ARGO,"Argonautes",,47.30241995,-1.48191405,,,1,,
ARMO,"Armorique",,47.27152266,-1.44536593,,,1,,
AROR,"Armor",,47.23104050,-1.63182524,,,1,,
ATAR,"Antarès",,47.28166503,-1.45965683,,,1,,
AUCP,"La Chapelle Aulnay",,47.30836323,-1.54335920,,,1,,
AUFR,"L'Aufrère",,47.16734102,-1.52513142,,,1,,
AUGE,"Augé",,47.19498076,-1.51740323,,,1,,
AURR,"Aurore",,47.26488128,-1.58093056,,,1,,
AVEN,"Aveneaux",,47.23391561,-1.62972968,,,1,,
BAGA,"Bagatelle",,47.24353474,-1.61993625,,,1,,
BAIR,"Bel Air",,47.22575662,-1.55968206,,,1,,
BALI,"Balinière",,47.18605090,-1.55402157,,,1,,
BANS,"Bois des Anses",,47.24664486,-1.49490373,,,1,,
BARR,"La Barre",,47.30879510,-1.38151453,,,1,,
BAST,"Bastille",,47.17901270,-1.59695756,,,1,,
BATI,"Batignolles",,47.25556045,-1.53003021,,,1,,
BAUG,"Baugerie",,47.20379388,-1.52027534,,,1,,
BAVO,"Basse Orévière",,47.22038027,-1.65886933,,,1,,
BBNI,"Babinière",,47.25929789,-1.54625658,,,1,,
BBON,"Boisbonne",,47.28686061,-1.50834861,,,1,,
BBRE,"Barbinière",,47.15984337,-1.48162038,,,1,,
BCES,"Bois Cesbron",,47.26096955,-1.62431608,,,1,,
BCGA,"Bd Charles Gautier",,47.22282517,-1.60702642,,,1,,
BCHE,"Basse Chênaie",,47.24117824,-1.50918217,,,1,,
BCNY,"Bas-Chantenay",,47.19827246,-1.58919017,,,1,,
BCOI,"Branchoire",,47.21806578,-1.60339574,,,1,,
BCTT,"Blanchet",,47.17133674,-1.54317866,,,1,,
BDAN,"Bd des Anglais",,47.22672232,-1.58294850,,,1,,
BDEL,"Baudelaire",,47.23393631,-1.59256577,,,1,,
BDIN,"Bodinières",,47.20990294,-1.64192506,,,1,,
BDLA,"Bout des Landes",,47.26742549,-1.58228805,,,1,,
BDNN,"Bourdonnais",,47.20641639,-1.57950634,,,1,,
BDOU,"Bd de Doulon",,47.22432181,-1.52018349,,,1,,
BDPA,"Bout des Pavés",,47.25281077,-1.57620064,,,1,,
BDRI,"Bourderies",,47.20663320,-1.59590977,,,1,,
BDSP,"Bd des Sports",,47.16564624,-1.46885999,,,1,,
BEDR,"Bel Endroit",,47.15470970,-1.63398011,,,1,,
BEET,"Bel Être",,47.17945790,-1.56759648,,,1,,
BEGE,"Beauger",,47.23426481,-1.55307927,,,1,,
BEHI,"Behinière",,47.19701789,-1.79093353,,,1,,
BEIL,"Beillevaire",,47.24938735,-1.60726607,,,1,,
DPBL,"Bêle",,47.26475076,-1.51049581,,,1,,
BEMZ,"Belges - Montbazon",,47.23439888,-1.54008782,,,1,,
BENA,"Beaulieu",,47.20393339,-1.53713804,,,1,,
BEOC,"Belloc",,47.20305260,-1.61471617,,,1,,
BESS,"Bessonneau",,47.21462131,-1.71345944,,,1,,
BETO,"Belle Etoile",,47.28068352,-1.45206222,,,1,,
BEVA,"Beauvaiserie",,47.13622454,-1.65440339,,,1,,
BGAR,"Bonne Garde",,47.19677941,-1.53126859,,,1,,
BGCY,"Beaugency",,47.20381536,-1.49018924,,,1,,
BGLA,"Basse-Goulaine",,47.21039161,-1.46603522,,,1,,
BGNN,"Bourgonnière",,47.20664821,-1.65545291,,,1,,
BGOG,"Bourgogne",,47.24663549,-1.58916721,,,1,,
BGRI,"Bougrière",,47.25508877,-1.47174619,,,1,,
BGSH,"Bergerie",,47.23791510,-1.62825286,,,1,,
BGTT,"Bergeronnettes",,47.23928085,-1.60035784,,,1,,
BGUT,"Louis Breguet",,47.27201167,-1.46599732,,,1,,
BGVI,"Bougainville",,47.19897800,-1.58357404,,,1,,
BHAR,"Bois Hardy",,47.19828491,-1.60054396,,,1,,
BHLR,"Basse Hillière",,47.28667516,-1.42687789,,,1,,
BIAN,"Aristide Briand",,47.29642182,-1.49498960,,,1,,
BIEE,"Belle Île",,47.22289203,-1.73054707,,,1,,
BIGN,"Bignons",,47.19979898,-1.49350957,,,1,,
BILE,"Basse Île",,47.19568871,-1.56324647,,,1,,
BIND,"Basse-Indre",,47.19770693,-1.67305608,,,1,,
BIOT,"Bigeottière",,47.25587549,-1.61927002,,,1,,
BISS,"Bossis",,47.21248221,-1.71219766,,,1,,
BJLI,"Bois Jaulin",,47.17756340,-1.63678600,,,1,,
BJOI,"Beaujoire",,47.25884933,-1.52493010,,,1,,
BLCH,"Blancho",,47.21317010,-1.73498350,,,1,,
BLDR,"Boulodrome",,47.25834064,-1.51423074,,,1,,
BLEM,"Belem",,47.26561338,-1.45301035,,,1,,
BLGO,"Berligout",,47.21577076,-1.67839838,,,1,,
BLL9,"Bellestre",,47.14841340,-1.69436142,,,1,,
BLLE,"Bellestre",,47.14789342,-1.69400805,,,1,,
BLNO,"Bois de La Noé",,47.14175942,-1.67143640,,,1,,
BLOR,"Blordière",,47.17994075,-1.53381289,,,1,,
BLSL,"Bellevue",,47.23532809,-1.47369243,,,1,,
BLUA,"Bélouga",,47.16581426,-1.58339671,,,1,,
BLVU,"Mendès France - Bellevue",,47.20889327,-1.61131174,,,1,,
BLZZ,"Berlioz",,47.23950397,-1.57158884,,,1,,
BNCH,"Blanchetière",,47.28986488,-1.55588163,,,1,,
BNDA,"Brindais",,47.13893567,-1.71820118,,,1,,
BNET,"Bignonnet",,47.17553878,-1.46520570,,,1,,
BNGL,"Bénoni Goullin",,47.20167803,-1.55376743,,,1,,
BNIE,"Bournière",,47.25435766,-1.45536860,,,1,,
BNLU,"Bénélux",,47.25408884,-1.49909338,,,1,,
BNNO,"Bernanos",,47.20616329,-1.61385944,,,1,,
BNON,"Bignon",,47.24908175,-1.59775547,,,1,,
BNTA,"BN",,47.18396011,-1.49668431,,,1,,
BNVI,"Bonneville",,47.24384339,-1.53640808,,,1,,
BOCE,"Centre de Bouguenais",,47.17935986,-1.62291358,,,1,,
BODO,"Bourdonnières",,47.18638625,-1.52199103,,,1,,
BOFA,"Bouffay",,47.21456726,-1.55260028,,,1,,
BOGE,"Bourgeonnière",,47.25294296,-1.56131280,,,1,,
BOLL,"Bois Tillac",,47.20017883,-1.77127662,,,1,,
BOND,"Bonde",,47.22261834,-1.55214517,,,1,,
BORL,"Bourrelière",,47.15833317,-1.49841400,,,1,,
BOSI,"Boissière",,47.25521779,-1.56576739,,,1,,
BOTI,"Boutière",,47.15725341,-1.46809205,,,1,,
BOUE,"Bio Ouest Laënnec",,47.23275471,-1.64188080,,,1,,
BOVR,"Bouvre",,47.17826085,-1.61308193,,,1,,
BPTY,"Boulay Paty",,47.22886156,-1.57629050,,,1,,
BRAG,"Bois Raguenet",,47.26659652,-1.60044334,,,1,,
BRBI,"Bois Robillard",,47.23514220,-1.51977766,,,1,,
BRCH,"Bréchetière",,47.28468842,-1.50339577,,,1,,
BRDI,"Briandière",,47.18972751,-1.69202220,,,1,,
BRET,"Bretonnière",,47.16650278,-1.46285933,,,1,,
BRGA,"Beauregard",,47.21072345,-1.65656066,,,1,,
BRIN,"Brains",,47.17078527,-1.71899634,,,1,,
BRLA,"Brouillard",,47.27315386,-1.51494214,,,1,,
BRLN,"Berlin",,47.21653641,-1.53622373,,,1,,
BRNI,"Baronnière",,47.25953711,-1.60392152,,,1,,
BROS,"Brossais",,47.16245679,-1.58560857,,,1,,
BRTA,"Bretagne",,47.21707070,-1.55818626,,,1,,
BRUN,"Bruneau",,47.22824329,-1.56176187,,,1,,
BRVI,"Boris Vian",,47.15314483,-1.68357816,,,1,,
BSAN,"Bobby Sands",,47.22989006,-1.65301973,,,1,,
BSEJ,"Beauséjour",,47.23824329,-1.58701443,,,1,,
BSNI,"Bussonnière",,47.26972299,-1.44372625,,,1,,
BSOL,"Beau Soleil",,47.17752041,-1.64436806,,,1,,
BSTI,"Bastière",,47.14843303,-1.45940479,,,1,,
BSYS,"Bois St-Lys",,47.30028294,-1.48207373,,,1,,
BTAI,"Bretinais",,47.22170279,-1.66574133,,,1,,
BTEC,"Bretéché",,47.22529184,-1.54860985,,,1,,
BTIE,"Bottière",,47.24024468,-1.51815135,,,1,,
BTLE,"Bouteillerie",,47.22148019,-1.54350501,,,1,,
BTRA,"Bertrand",,47.25712536,-1.57563141,,,1,,
BUGA,"Bugallière",,47.25989992,-1.63789321,,,1,,
BULA,"Butte des Landes",,47.16077942,-1.49378527,,,1,,
BUON,"Bougon",,47.17418788,-1.61066406,,,1,,
BUSS,"Buisson",,47.26060509,-1.48742297,,,1,,
BVDI,"Bouvardière",,47.23835837,-1.59841068,,,1,,
BVER,"Bouvernière",,47.23762328,-1.61163942,,,1,,
BVOI,"Beauvoir",,47.17846824,-1.63068395,,,1,,
BYCE,"Centre de Bouaye",,47.14389569,-1.69169656,,,1,,
BYGA,"Gare de Bouaye",,47.13838428,-1.68083896,,,1,,
BYTO,"Bouaye Coteaux",,47.16477865,-1.67886486,,,1,,
BZAR,"Buzardières",,47.20725278,-1.65963116,,,1,,
CABR,"Cabrol",,47.20325820,-1.58859645,,,1,,
CACE,"Centre de Carquefou",,47.29714506,-1.49012870,,,1,,
CADO,"Cadoire",,47.25671175,-1.48804666,,,1,,
CAGE,"Chalonges",,47.27613635,-1.42939758,,,1,,
CAHL,"Charlière",,47.32101197,-1.55055505,,,1,,
CAIO,"Caillou Blanc",,47.29864722,-1.58556896,,,1,,
CALI,"Californie",,47.19086120,-1.58531429,,,1,,
CANC,"Canclaux",,47.21383536,-1.57489018,,,1,,
CAPE,"Capellia",,47.27967710,-1.55496349,,,1,,
CARQ,"Carquefou",,47.30370254,-1.48536605,,,1,,
CAST,"Castorama",,47.25896592,-1.50696007,,,1,,
CATI,"Cartier",,47.26820359,-1.45550147,,,1,,
CAUX,"Château D'Aux",,47.18534810,-1.67454951,,,1,,
CBAC,"Bac de Couëron",,47.20598337,-1.75170597,,,1,,
CBEA,"Charbonneau",,47.30062970,-1.49080200,,,1,,
CBGE,"Chapeau Berger",,47.17101690,-1.46882696,,,1,,
CBIN,"Corbinerie",,47.16160499,-1.54213560,,,1,,
CBLE,"Chemin Bleu",,47.17822438,-1.52497724,,,1,,
CBOU,"Couëron Bougon",,47.22507921,-1.73401375,,,1,,
CBRD,"Claude Bernard",,47.22304901,-1.61174831,,,1,,
CBSS,"Cambronne",,47.20660534,-1.50645822,,,1,,
CBTE,"Choblèterie",,47.13620886,-1.46142133,,,1,,
CCAN,"Couchant",,47.26848778,-1.59960347,,,1,,
CCDI,"Cochardières",,47.22992076,-1.63319007,,,1,,
CCHA,"Couchant",,47.27009278,-1.51388529,,,1,,
CCOU,"Champ de Courses",,47.24451408,-1.56122079,,,1,,
CCRE,"Chêne Creux",,47.17045652,-1.54876905,,,1,,
CDAN,"Chêne des Anglais",,47.26153847,-1.57308607,,,1,,
CDCO,"Cité des Congrès",,47.21349749,-1.54495376,,,1,,
CDMA,"Champ de Manoeuvre",,47.27269353,-1.50072902,,,1,,
CECE,"Centre de La Chapelle",,47.29913684,-1.54842829,,,1,,
CEDR,"Cèdre",,47.29944073,-1.56025341,,,1,,
CEER,"Chapellerie",,47.28290704,-1.42315171,,,1,,
CEGA,"Gare de La Chapelle",,47.29586473,-1.54896610,,,1,,
CELL,"Le Cellier",,47.32676240,-1.34800097,,,1,,
CFOI,"Champ de Foire",,47.12460773,-1.61856478,,,1,,
CGAU,"Cimetière Gaudinière",,47.24311497,-1.58272698,,,1,,
CGLA,"Chêne Gala",,47.18316762,-1.53920230,,,1,,
CHAB,"Chabossière",,47.21532409,-1.68216819,,,1,,
CHBE,"Chambelles",,47.23162916,-1.53062861,,,1,,
CHER,"La Cochère",,47.20041546,-1.77830108,,,1,,
CHFL,"Champ Fleuri",,47.14409184,-1.52567728,,,1,,
CHGN,"Châtaigniers",,47.22171128,-1.60185565,,,1,,
CHIN,"La Chesnaie",,47.28167117,-1.53759214,,,1,,
CHLI,"Cholière",,47.25099949,-1.60671565,,,1,,
CHME,"Charmes",,47.19080176,-1.46099838,,,1,,
CHNI,"Charbonnière",,47.26369070,-1.64229005,,,1,,
CHOC,"Chocolaterie",,47.24276681,-1.52801535,,,1,,
CHPO,"Champonnière",,47.16352336,-1.50568819,,,1,,
CHRE,"Chalâtres",,47.23102500,-1.53877622,,,1,,
CHSS,"Chaussée",,47.17665780,-1.52100989,,,1,,
CHTE,"Châtelets",,47.19716701,-1.54058346,,,1,,
CHVE,"Chauvais",,47.33740081,-1.57166574,,,1,,
CHZY,"Chanzy",,47.22360468,-1.54546241,,,1,,
CIGL,"Chai Gallais",,47.13700078,-1.72157408,,,1,,
CIVL,"Circuit du Vallon",,47.27364742,-1.44741776,,,1,,
CJOS,"Cimetière St-Joseph",,47.26818374,-1.52158608,,,1,,
CLAM,"Clos Ami",,47.21215380,-1.65549491,,,1,,
CLBO,"Clos Bonnet",,47.18943855,-1.56392208,,,1,,
CLET,"Clétras",,47.25544747,-1.51078671,,,1,,
CLGE,"Chalonges",,47.18915535,-1.47262002,,,1,,
CLMO,"Cimetière La Montagne",,47.18732581,-1.68649020,,,1,,
CLNA,"Colonac",,47.22507475,-1.60282256,,,1,,
CLOT,"Clotais",,47.19301110,-1.71822262,,,1,,
CLPT,"Clépettre",,47.29667711,-1.54706585,,,1,,
CLRO,"Clos Roux",,47.19812679,-1.74954625,,,1,,
CLSE,"Closeaux",,47.23931980,-1.62784519,,,1,,
CLTT,"Châlet",,47.22942048,-1.54451867,,,1,,
CLUE,"Clouet",,47.16748940,-1.51085257,,,1,,
CLZE,"Clouzeaux",,47.17931163,-1.49260400,,,1,,
CMAR,"Cirque - Marais",,47.21805370,-1.55724257,,,1,,
CMCI,"Clémencière",,47.26948770,-1.43572725,,,1,,
CMLL,"Charmille",,47.25707866,-1.60617584,,,1,,
CMNE,"Commune 1871",,47.19932642,-1.49967325,,,1,,
CMOU,"Clos du Moulin",,47.14516318,-1.52131364,,,1,,
CMRA,"Cormerais",,47.19475932,-1.62707891,,,1,,
CMSY,"Carrière Misery",,47.19982789,-1.58022151,,,1,,
CMUS,"Camus",,47.21928251,-1.57285071,,,1,,
CNAV,"Chantiers Navals",,47.20884925,-1.56779810,,,1,,
CNCE,"Chenonceau",,47.27263470,-1.43447667,,,1,,
CNGO,"Congo",,47.24067949,-1.60913535,,,1,,
CNLA,"Canal",,47.21612339,-1.47178276,,,1,,
CNNT,"Chemin Nantais",,47.28869640,-1.43370965,,,1,,
CNON,"Chinon",,47.27413636,-1.42900524,,,1,,
CNTR,"Centaure",,47.17000334,-1.62715098,,,1,,
CNVR,"Chêne Vert",,47.28625856,-1.43946571,,,1,,
COAY,"Corlay",,47.20794484,-1.64414014,,,1,,
COCH,"Cochard",,47.22402387,-1.55052864,,,1,,
COET,"Les Couëts",,47.18069157,-1.58668691,,,1,,
COHO,"Chohonnière",,47.26314626,-1.48602114,,,1,,
COLI,"Colinière",,47.23587021,-1.50836278,,,1,,
COMM,"Commerce",,47.21354486,-1.55623236,,,1,,
CONI,"Corniche",,47.25262913,-1.59438669,,,1,,
CORA,"Conraie",,47.26089554,-1.58840988,,,1,,
COST,"Cousteau",,47.23986299,-1.51291605,,,1,,
COTA,"Coutancière",,47.30617449,-1.56007737,,,1,,
COUD,"Coudray",,47.23214764,-1.54248589,,,1,,
CP3R,"Chapelles",,47.16356526,-1.53851259,,,1,,
CP4L,"Chapelle Laënnec",,47.23535037,-1.63778655,,,1,,
CPER,"Copernic - Musées",,47.21487992,-1.56477358,,,1,,
CPGT,"Capitaine Grant",,47.26176872,-1.66947834,,,1,,
CPRE,"Chaupières",,47.24314729,-1.49505252,,,1,,
CPTE,"Chapelet",,47.13205641,-1.64156579,,,1,,
CQGU,"Chat qui Guette",,47.19195370,-1.69713186,,,1,,
CQLU,"Coqueluchon",,47.18380011,-1.47038954,,,1,,
CRAI,"Clairais",,47.27555119,-1.43856757,,,1,,
CRBE,"Corberie",,47.15245718,-1.52396069,,,1,,
CRCE,"Courocerie",,47.25177254,-1.49936106,,,1,,
CREZ,"Château de Rezé",,47.18481208,-1.55976164,,,1,,
CRME,"Crémetterie",,47.21827419,-1.60833549,,,1,,
CRNO,"Corbon",,47.21335549,-1.46090204,,,1,,
CROU,"Chemin Rouge",,47.25157842,-1.51760872,,,1,,
CRPO,"Criport",,47.15833439,-1.50356505,,,1,,
CRQU,"Place du Cirque",,47.21666940,-1.55684175,,,1,,
CRRO,"Claire Roman",,47.15470775,-1.59132362,,,1,,
CRSA,"Croissant",,47.24103597,-1.52997054,,,1,,
CRTI,"Crétinières",,47.27652377,-1.55320535,,,1,,
CRVA,"Cravate",,47.24324309,-1.58825421,,,1,,
CSAY,"Chassay",,47.24583840,-1.48481952,,,1,,
CSCL,"Cimetière St-Clair",,47.21681960,-1.59370400,,,1,,
CSGR,"Cassegrain",,47.18762325,-1.48746483,,,1,,
CSHB,"Carrières",,47.20819025,-1.63823158,,,1,,
CSIB,"Clos Siban",,47.21016184,-1.64590316,,,1,,
CSMP,"Casimir Perier",,47.23197587,-1.56824870,,,1,,
CSRI,"Classerie",,47.16803208,-1.55875992,,,1,,
CSTA,"Collège Ste-Anne",,47.29496382,-1.49243602,,,1,,
CSTE,"Casterneau",,47.22715488,-1.53274448,,,1,,
CSVA,"Conservatoire",,47.20704483,-1.53302035,,,1,,
CTAR,"Cotalard",,47.28617298,-1.53779415,,,1,,
CTBO,"Coteaux",,47.18438813,-1.66923766,,,1,,
CTEU,"Caboteurs",,47.18646655,-1.58743518,,,1,,
CTIE,"Châtelier",,47.18484934,-1.59326049,,,1,,
CTLI,"Courteline",,47.23642701,-1.58692349,,,1,,
CTNS,"Carterons",,47.21824433,-1.73918265,,,1,,
CTOR,"Clos Toreau",,47.19411520,-1.52907028,,,1,,
CTRE,"Chantrerie - Grandes Écoles",,47.28163711,-1.51695782,,,1,,
CTYY,"Coty",,47.24901468,-1.48800397,,,1,,
CUGA,"Gare de Couëron",,47.22167517,-1.72390317,,,1,,
CUIE,"Chausserie",,47.14942648,-1.70423348,,,1,,
CUPI,"Coupries",,47.19158639,-1.46729809,,,1,,
CURI,"Curie",,47.19052929,-1.48742009,,,1,,
CUVI,"Cuvier",,47.21073923,-1.57408225,,,1,,
CVBL,"Cheveux Blancs",,47.26553292,-1.63504250,,,1,,
CVDO,"Cimetière Vieux Doulon",,47.23849235,-1.50040266,,,1,,
CVER,"Chapeau Verni",,47.18905054,-1.50927505,,,1,,
CVLE,"Chevalerie",,47.25221480,-1.54517072,,,1,,
CVNI,"Chauvinière",,47.25146581,-1.57206508,,,1,,
CVRN,"Cheverny",,47.24544637,-1.60546226,,,1,,
CVTI,"Convention",,47.21141270,-1.58659602,,,1,,
CXFS,"Croix des Fosses",,47.21333948,-1.46635840,,,1,,
CZIN,"Chézine",,47.23373473,-1.59932012,,,1,,
DAKK,"Danemark",,47.26096703,-1.49857486,,,1,,
DALB,"Dalby",,47.22513188,-1.52982307,,,1,,
DANU,"Danube",,47.30449077,-1.50178212,,,1,,
DAVU,"Davum",,47.26498319,-1.49599200,,,1,,
DAYA,"Dayat",,47.20080952,-1.67423351,,,1,,
DCAN,"Duchesse Anne - Château",,47.21620349,-1.54756121,,,1,,
DCFF,"Du Chaffault",,47.20764712,-1.58198473,,,1,,
DEMO,"Desmoulins",,47.23227708,-1.52225923,,,1,,
DERV,"Dervallières",,47.22883772,-1.59805271,,,1,,
DGLE,"De Gaulle",,47.30101333,-1.55304118,,,1,,
DIAN,"Diane",,47.23964010,-1.57811601,,,1,,
DIDE,"Espace Diderot",,47.18448466,-1.56299568,,,1,,
DLCR,"Delacroix",,47.22364517,-1.58941815,,,1,,
DLLE,"Drillet",,47.23485312,-1.66629438,,,1,,
DLME,"Delorme",,47.21568670,-1.56467378,,,1,,
DMAI,"Domaine",,47.17834379,-1.46944547,,,1,,
DMUR,"Dumont d'Urville",,47.22586620,-1.63639298,,,1,,
DNAI,"Danais",,47.21370744,-1.58977548,,,1,,
DOCE,"Doucet",,47.27792657,-1.63265892,,,1,,
DOLT,"Dolto",,47.21645137,-1.63617499,,,1,,
DOME,"Doumer",,47.22183774,-1.57826351,,,1,,
DOTT,"Douettée",,47.20773953,-1.49828602,,,1,,
DPTE,"Déportés",,47.19716038,-1.49228215,,,1,,
DRAD,"Désirade",,47.27782222,-1.48413044,,,1,,
DRID,"Druides",,47.23863028,-1.50740147,,,1,,
DRLA,"Drouillard",,47.17926542,-1.67783111,,,1,,
DROI,"Droitière",,47.30793625,-1.37333190,,,1,,
DSAI,"Desaix",,47.22628695,-1.54334599,,,1,,
DSNE,"Desnerie",,47.27793731,-1.54064319,,,1,,
DUKA,"Dukas",,47.23486639,-1.60213018,,,1,,
DUNA,"Dunant",,47.24386490,-1.52109710,,,1,,
DUTR,"Duguay Trouin",,47.22423991,-1.61644652,,,1,,
EBCA,"Embarcadère",,47.19408468,-1.64653306,,,1,,
ECBU,"Écobuts",,47.19393189,-1.50779579,,,1,,
ECHO,"Échoppes",,47.14391720,-1.68539014,,,1,,
ECOS,"Écosse",,47.21516060,-1.52636361,,,1,,
ECSU,"École Centrale - Audencia",,47.24811586,-1.55153546,,,1,,
ECTE,"Enchanterie",,47.23007808,-1.52407729,,,1,,
EDIP,"Edith Piaf",,47.22833255,-1.62405970,,,1,,
EDNA,"Édit de Nantes",,47.21449073,-1.56847285,,,1,,
EDRE,"Erdreau",,47.29109897,-1.50125811,,,1,,
EGAN,"Eglantine",,47.23518001,-1.58810150,,,1,,
EGLI,"Égalité",,47.20947084,-1.58881693,,,1,,
EINS,"Einstein",,47.26410317,-1.57105087,,,1,,
ELIS,"Eglise",,47.16852620,-1.72022138,,,1,,
EMBE,"Embellie",,47.26552105,-1.51855455,,,1,,
ENCO,"Ennerie Corbon",,47.14189620,-1.70497247,,,1,,
EPEL,"Écoles",,47.19751025,-1.75917066,,,1,,
EPIN,"Épinais",,47.13619858,-1.61050266,,,1,,
EPYY,"Epinay",,47.29234172,-1.48690687,,,1,,
EQPE,"Équipement",,47.22386574,-1.57577963,,,1,,
ERAC,"Erdre Active",,47.28315400,-1.54406719,,,1,,
ERDI,"Éraudière",,47.24267744,-1.53524312,,,1,,
ESAV,"ESAT Vertonne",,47.18416052,-1.48200199,,,1,,
ESCA,"Escall",,47.19945444,-1.50331902,,,1,,
ESOR,"Écoles",,47.14665531,-1.52899878,,,1,,
ESUE,"Eugène Sue",,47.23321199,-1.59595197,,,1,,
EUCA,"Europe",,47.26112678,-1.50278804,,,1,,
EUVE,"Europe",,47.17302989,-1.47628440,,,1,,
EVET,"École Vétérinaire",,47.29088669,-1.52344800,,,1,,
EVRD,"Evardière",,47.29883604,-1.56615513,,,1,,
FACU,"Facultés",,47.24684423,-1.55529719,,,1,,
FADI,"Fardière",,47.19794198,-1.60667288,,,1,,
FALI,"Fallières",,47.22494819,-1.57947086,,,1,,
FANE,"Faneurs",,47.21374022,-1.70196570,,,1,,
FATA,"Fantaisie",,47.25262588,-1.56815635,,,1,,
FAUV,"Fauvelière",,47.28300983,-1.50531201,,,1,,
FBAU,"François Baudry",,47.26221783,-1.67192539,,,1,,
FBLA,"Fresche Blanc",,47.25282588,-1.55683320,,,1,,
FDDR,"Fac de Droit",,47.24375317,-1.55196020,,,1,,
FDLE,"Fac de Lettres",,47.24534499,-1.55189608,,,1,,
FERI,"Ferrière",,47.24434218,-1.59102376,,,1,,
FFAU,"Félix Faure",,47.22700593,-1.56941960,,,1,,
FGRI,"Fief Guérin",,47.14381973,-1.66047312,,,1,,
FLAN,"Flandres",,47.28562681,-1.54787876,,,1,,
FLEU,"Fleuriaye",,47.29923921,-1.50013248,,,1,,
FLRI,"Floride",,47.21352580,-1.60362056,,,1,,
FLTR,"Flora Tristan",,47.17581933,-1.54371483,,,1,,
FLUR,"Fleurs",,47.21586059,-1.71799790,,,1,,
FMIT,"François Mitterrand",,47.22210178,-1.63857119,,,1,,
FNLL,"Fresnel",,47.24301901,-1.52339017,,,1,,
FNSO,"Fenaison",,47.26966612,-1.59248914,,,1,,
FOCH,"Foch - Cathédrale",,47.21925363,-1.55045832,,,1,,
FOND,"Fonderies",,47.20641547,-1.54391403,,,1,,
FORU,"Forum d'Orvault",,47.25401746,-1.61508982,,,1,,
FOTA,"Fontaine",,47.20554318,-1.48911942,,,1,,
FOUL,"Foulquier",,47.30982065,-1.54630020,,,1,,
FRAC,"Frachon",,47.21916013,-1.62074582,,,1,,
FRBA,"Frébaudière",,47.27243308,-1.62766022,,,1,,
FRCH,"Fraîches",,47.17450971,-1.48942481,,,1,,
FRET,"Forêt",,47.24432176,-1.57538371,,,1,,
FRGA,"Frégate",,47.23522526,-1.47604011,,,1,,
FRII,"François II",,47.21842841,-1.68319067,,,1,,
FRKL,"Franklin",,47.22595130,-1.61972641,,,1,,
FRMO,"Frémoire",,47.15332516,-1.47633012,,,1,,
FRNE,"Frênes",,47.25323809,-1.48766589,,,1,,
FRON,"Frêne Rond",,47.19021772,-1.49641502,,,1,,
FRRR,"Frères Rousseau",,47.12611534,-1.62848825,,,1,,
FTAB,"Félix Tableau",,47.18797818,-1.54738129,,,1,,
FTDO,"Fructidor",,47.24009067,-1.55952298,,,1,,
GADO,"Gandonnière",,47.30703832,-1.54057364,,,1,,
GAGN,"Gagnerie",,47.23223866,-1.50712589,,,1,,
GAIL,"Garillère",,47.19249604,-1.52068079,,,1,,
GALH,"Galheur",,47.16676315,-1.57991614,,,1,,
GAMB,"Gambetta",,47.22358023,-1.53856078,,,1,,
GATI,"Gâtine",,47.21340454,-1.66059828,,,1,,
GAUT,"Gautellerie",,47.17739585,-1.60201963,,,1,,
GBLO,"Grand Blottereau",,47.22974326,-1.51105989,,,1,,
GBNI,"Guiblinière",,47.29242582,-1.52037824,,,1,,
GBTA,"Grande-Bretagne",,47.26229573,-1.50214038,,,1,,
GCAR,"Grand Carcouët",,47.23129641,-1.59211662,,,1,,
GCEN,"Grande Censive",,47.25211163,-1.54991861,,,1,,
GCHE,"Gachet",,47.29259995,-1.52403246,,,1,,
GCSO,"Glacisol",,47.25158666,-1.50440449,,,1,,
GDCH,"Gare de Chantenay",,47.19791548,-1.59361074,,,1,,
GDEN,"Goldens",,47.16203033,-1.49963083,,,1,,
GDFI,"Grand Fief",,47.12559806,-1.62554131,,,1,,
GDNN,"Gendronnerie",,47.12729774,-1.63914445,,,1,,
GDOU,"Grande Ouche",,47.18133696,-1.57968637,,,1,,
GDPI,"Grande Pièce",,47.19907160,-1.51039424,,,1,,
GDRE,"Guindré",,47.23920277,-1.53803053,,,1,,
GELL,"Grande Noëlle",,47.16234559,-1.50219674,,,1,,
GERA,"Géraudière",,47.26175705,-1.56711137,,,1,,
GESV,"Gesvrine",,47.26980220,-1.55219083,,,1,,
GEVR,"Gesvres",,47.26365391,-1.54872959,,,1,,
GGAU,"Gergaudière",,47.28959688,-1.58587483,,,1,,
GGNO,"Grignon",,47.21646310,-1.46654077,,,1,,
GGUI,"Gauguin",,47.16666708,-1.55469861,,,1,,
GIAR,"Gilarderie",,47.18588840,-1.68248578,,,1,,
GIBR,"Gibraye",,47.20497394,-1.51755070,,,1,,
GIND,"Gare d'Indre",,47.20492570,-1.66255280,,,1,,
GIQU,"Gicquelière",,47.25810214,-1.45838705,,,1,,
GLAU,"Grillaud",,47.22028479,-1.58158182,,,1,,
GLDE,"Grande Lande",,47.19222248,-1.49755349,,,1,,
GLEI,"Grolerie",,47.17269593,-1.47236043,,,1,,
GLIE,"Gilière",,47.29975780,-1.55277499,,,1,,
GLNE,"Galarne",,47.20819359,-1.53000277,,,1,,
GLOU,"Grange au Loup",,47.26378596,-1.51546845,,,1,,
GMAR,"Gare Maritime",,47.20706572,-1.57338159,,,1,,
GMDR,"Grimaudière",,47.29204395,-1.53587026,,,1,,
GMOL,"Guy Mollet",,47.24944492,-1.55517566,,,1,,
GMTL,"Germaine Tillon",,47.26627216,-1.51378206,,,1,,
GNRA,"Greneraie",,47.19945857,-1.53296736,,,1,,
GOBI,"Gobinière",,47.24935632,-1.58713288,,,1,,
GOLF,"Golf",,47.23619473,-1.60434919,,,1,,
GONI,"Gournière",,47.26826457,-1.54944451,,,1,,
GPOR,"Grand Portail",,47.20142758,-1.52361868,,,1,,
GPRO,"Gare de Pont Rousseau",,47.19295925,-1.54886586,,,1,,
GRAM,"Grammoire",,47.18350490,-1.47264466,,,1,,
GRCH,"Grand Chemin",,47.19725449,-1.78379650,,,1,,
GRET,"Gare de l'État",,47.20469350,-1.56005682,,,1,,
GRIM,"Grimm",,47.21611145,-1.64552776,,,1,,
GRMA,"Grimau",,47.22832018,-1.65486489,,,1,,
GROR,"Garenne",,47.26519412,-1.62747924,,,1,,
GRPO,"Gripots",,47.19246983,-1.49176824,,,1,,
GRTE,"Garotterie",,47.22423142,-1.60693971,,,1,,
GRVI,"Guerivières",,47.20517950,-1.46732471,,,1,,
GRZI,"Grezillières",,47.21439055,-1.47829212,,,1,,
GSAN,"George Sand",,47.16578544,-1.54492912,,,1,,
GSEN,"Grasse Noue",,47.28025429,-1.58189880,,,1,,
GSIN,"Grassinière",,47.16579206,-1.50790187,,,1,,
GSNO,"Gare Nord - Jardin des Plantes",,47.21786296,-1.54278792,,,1,,
GSSU,"Gare Sud",,47.21531024,-1.54183218,,,1,,
GTAE,"Grootaers",,47.23966759,-1.58464851,,,1,,
GTLA,"Garettes - Landreau",,47.27308793,-1.63056725,,,1,,
GTVE,"Gaston Veil",,47.21014781,-1.55561116,,,1,,
GULO,"Guilloterie",,47.16986818,-1.56042160,,,1,,
GURO,"Gustave Roch",,47.20409240,-1.55198964,,,1,,
GVNO,"Gare de Vertou Nord",,47.18709990,-1.47850463,,,1,,
GVSU,"Gare de Vertou Sud",,47.18562380,-1.47665429,,,1,,
HALU,"Haluchère - Batignolles",,47.24871997,-1.52223570,,,1,,
HARO,"Harouys",,47.21690025,-1.56700426,,,1,,
HAUB,"Haubans",,47.21464189,-1.53001407,,,1,,
HAVE,"Halvêque",,47.25744228,-1.52030817,,,1,,
HBAN,"Hangar à Bananes",,47.20049084,-1.57284835,,,1,,
HBDE,"Halbarderie",,47.26831753,-1.43799446,,,1,,
HBLI,"Hôpital Bellier",,47.22112579,-1.52474528,,,1,,
HBRA,"Herbray",,47.15046703,-1.47100957,,,1,,
HCOU,"Hauts de Couëron",,47.24055434,-1.66962425,,,1,,
HDIE,"Haudrière",,47.15448516,-1.46764720,,,1,,
HERM,"Hermeland",,47.22998839,-1.61680792,,,1,,
HFLE,"Hameau Fleuri",,47.25106852,-1.58996363,,,1,,
HFVE,"Haute Forêt",,47.16828801,-1.46555463,,,1,,
HGNR,"Haute Gournière",,47.26788984,-1.54586193,,,1,,
HILE,"Haute Île",,47.19476901,-1.55637969,,,1,,
HIND,"Haute-Indre",,47.19540943,-1.64982033,,,1,,
HIPP,"Hippodrome",,47.24703628,-1.56736060,,,1,,
HLAN,"Haute Lande",,47.15391657,-1.52368298,,,1,,
HLLR,"Hilière",,47.28774888,-1.43001755,,,1,,
HMLL,"Houmaille",,47.18907145,-1.58700912,,,1,,
HODI,"Hôtel Dieu",,47.21236337,-1.55443996,,,1,,
HOGR,"Hongrie",,47.21594292,-1.52411609,,,1,,
HOSE,"Housseau",,47.28104613,-1.49836431,,,1,,
HPLA,"Hôpital Laënnec",,47.23687497,-1.64090320,,,1,,
HREG,"Hôtel de Région",,47.21032136,-1.52625744,,,1,,
HRLL,"Hérelle",,47.20159025,-1.58674154,,,1,,
HVCQ,"Mairie de Carquefou",,47.29891286,-1.49032153,,,1,,
HVNA,"Hôtel de Ville",,47.21782670,-1.55444338,,,1,,
ICAM,"ICAM",,47.27360370,-1.50187680,,,1,,
ICOU,"ICO",,47.23852646,-1.63825140,,,1,,
IDFR,"Île de France",,47.16939450,-1.46782946,,,1,,
IDLO,"Îles de Loire",,47.21077207,-1.49031802,,,1,,
IDNA,"Île de Nantes",,47.20595630,-1.53879775,,,1,,
IMPR,"Imprimeurs",,47.23865290,-1.67006504,,,1,,
INLA,"Internat Laënnec",,47.23499666,-1.64059952,,,1,,
INRE,"Indre",,47.20112077,-1.66665753,,,1,,
IROI,"Iroise",,47.24821551,-1.53650389,,,1,,
ISLE,"Islettes",,47.26333052,-1.47615418,,,1,,
IUTH,"IUT",,47.29791024,-1.50461762,,,1,,
JALI,"Jalière",,47.26368940,-1.59626387,,,1,,
JAME,"Jamet",,47.21010985,-1.60316148,,,1,,
JANA,"Jaunais",,47.17603889,-1.53376463,,,1,,
JAPY,"Japy",,47.25991509,-1.51039387,,,1,,
JARI,"Jarriais",,47.21290859,-1.71902739,,,1,,
JAUR,"Jacqueline Auriol",,47.27117105,-1.47179655,,,1,,
JBAR,"Jean Bart",,47.19923686,-1.67542268,,,1,,
JBNA,"Jeanne Bernard",,47.23590325,-1.59066715,,,1,,
JCAR,"Jacques Cartier",,47.22389662,-1.63622818,,,1,,
JCOU,"Joncours",,47.21995305,-1.58677946,,,1,,
JDGA,"Jardins de Gaïa",,47.15756688,-1.67822907,,,1,,
JFER,"Jules Ferry",,47.25072688,-1.48751140,,,1,,
JFRA,"Jean Fraix",,47.18604445,-1.54195510,,,1,,
JGUE,"Jaguère",,47.17550945,-1.56764539,,,1,,
JHDI,"Jahardières",,47.12538906,-1.64281818,,,1,,
JJCE,"Jean Jaurès",,47.30127559,-1.54980060,,,1,,
JJNA,"Jean Jaurès",,47.21836198,-1.56005961,,,1,,
JLIE,"Joliverie",,47.18986654,-1.51945811,,,1,,
JLVE,"Joliverie",,47.18955371,-1.51750265,,,1,,
JMAC,"Jean Macé",,47.20054535,-1.58928290,,,1,,
JMLI,"Jean Moulin",,47.20679569,-1.60054105,,,1,,
JMON,"Jean Monnet",,47.16620421,-1.46516502,,,1,,
JNAI,"Jaunaie",,47.21888373,-1.72783741,,,1,,
JNEA,"Jauneau",,47.27376314,-1.45014915,,,1,,
JNIG,"Jean Ingres",,47.22237373,-1.59680515,,,1,,
JNLI,"Jonelière",,47.25173237,-1.54077058,,,1,,
JOTE,"Jouetterie",,47.13146095,-1.66248403,,,1,,
JPER,"Jean Perrin",,47.18126214,-1.56070410,,,1,,
JPTR,"Jupiter",,47.28437682,-1.45579165,,,1,,
JROS,"Jean Rostand",,47.24590592,-1.59379453,,,1,,
JTIC,"Justice",,47.20948976,-1.63099877,,,1,,
JUIV,"Juiverie",,47.21072325,-1.62472964,,,1,,
JUME,"Jumelière",,47.29430784,-1.48763799,,,1,,
JVAL,"Jules Vallès",,47.17342955,-1.57081171,,,1,,
JVNA,"Jules Verne",,47.24880342,-1.51728965,,,1,,
JVRA,"Janvraie",,47.20000078,-1.61230633,,,1,,
KERE,"Keren",,47.24442970,-1.53372604,,,1,,
KOEN,"Koenig",,47.19803845,-1.61563310,,,1,,
KOUF,"Koufra",,47.25034953,-1.53112554,,,1,,
LABE,"Lac de Beaulieu",,47.21935437,-1.69242493,,,1,,
LACH,"L'Arche",,47.21284433,-1.70837557,,,1,,
LADO,"Ladoumègue",,47.29611088,-1.48652268,,,1,,
LAGE,"Largeau",,47.19558785,-1.51009892,,,1,,
LAHA,"La Haie",,47.26092483,-1.47509623,,,1,,
LAIL,"Les Ailes",,47.17121297,-1.57412762,,,1,,
LALL,"Lallié",,47.22673376,-1.54641933,,,1,,
LAMA,"Lamartine",,47.21649329,-1.57886784,,,1,,
LANA,"Launay",,47.26551981,-1.63233563,,,1,,
LAUR,"Lauriers",,47.20492373,-1.60521282,,,1,,
LAXX,"La Croix",,47.16527449,-1.48674188,,,1,,
LBAU,"Les Bauches",,47.26329571,-1.67724329,,,1,,
LBER,"Lindbergh",,47.15506869,-1.59837208,,,1,,
LBOS,"La Brosse",,47.33298000,-1.56960262,,,1,,
LBPI,"L'Ébaupin",,47.17158139,-1.50998036,,,1,,
LBUS,"Les Buissons",,47.27824175,-1.44364074,,,1,,
LCAR,"Le Cardo",,47.26181538,-1.58443023,,,1,,
LCBU,"Le Corbusier",,47.19021498,-1.56857268,,,1,,
LCEE,"La Carrée",,47.16853282,-1.54390397,,,1,,
LCLE,"La Coulée",,47.26014155,-1.57475936,,,1,,
LCNE,"Le Chêne",,47.16522543,-1.48439435,,,1,,
LCOG,"La Cogne",,47.28761252,-1.55675793,,,1,,
LCSE,"La Close",,47.24087160,-1.57271903,,,1,,
LCTE,"La Côte",,47.28207546,-1.56046270,,,1,,
LDAS,"Landas",,47.16932388,-1.51074929,,,1,,
LDRE,"Landreau",,47.23217333,-1.51623283,,,1,,
LEBP,"L'Ebaupin",,47.28428750,-1.44388449,,,1,,
LECH,"Lechat",,47.20411047,-1.58094203,,,1,,
LEGU,"Leygues",,47.20318133,-1.54209099,,,1,,
LEVO,"Levoyer",,47.19442286,-1.58099009,,,1,,
LFAU,"Les Faulx",,47.15720883,-1.52275962,,,1,,
LFER,"La Ferme",,47.26421915,-1.68026466,,,1,,
LFLE,"Laurier Fleuri",,47.18839405,-1.48369649,,,1,,
LFOR,"La Forêt",,47.14947537,-1.63938699,,,1,,
LFVR,"Lefeuvre",,47.26668521,-1.49504763,,,1,,
LGAR,"La Garde",,47.25574916,-1.50908609,,,1,,
LGOF,"Le Goffic",,47.22997873,-1.56317754,,,1,,
LGRI,"La Grille",,47.25096813,-1.48120883,,,1,,
LGTH,"Lagathu",,47.18036592,-1.53654374,,,1,,
LHAC,"La Hache",,47.26214345,-1.49900192,,,1,,
LHER,"La Herdrie",,47.19780011,-1.45411780,,,1,,
LHIE,"La Haie",,47.29015052,-1.54255674,,,1,,
LHLE,"Le Halleray",,47.26982394,-1.45659159,,,1,,
LHOU,"La Houssais",,47.17423610,-1.55369405,,,1,,
LHPI,"L'Hôpitau",,47.27222023,-1.55166280,,,1,,
LIBE,"Libération",,47.17729548,-1.67904538,,,1,,
LILA,"Lilas",,47.13774367,-1.46888716,,,1,,
LION,"Lionnière",,47.21866064,-1.69598326,,,1,,
LIPP,"Lippmann",,47.23896584,-1.52035755,,,1,,
LITT,"Littré",,47.21780088,-1.58231866,,,1,,
LJOS,"Léon Jost",,47.23633886,-1.56326841,,,1,,
LLGR,"Léo Lagrange",,47.29691250,-1.55598610,,,1,,
LLIO,"Les Lions",,47.24984587,-1.61549843,,,1,,
LLMO,"Le Clémois",,47.13741437,-1.72256644,,,1,,
LLOR,"La Lorie",,47.23527989,-1.65700170,,,1,,
LMAR,"La Marche",,47.18061451,-1.65906019,,,1,,
LMBR,"Lambert",,47.17092448,-1.53972140,,,1,,
LMEE,"La martinière",,47.20633168,-1.78491058,,,1,,
LMIC,"Louise Michel",,47.21948695,-1.61318817,,,1,,
LMNE,"Lemoine",,47.23556457,-1.54749291,,,1,,
LMRI,"Lamoricière",,47.21454338,-1.57257844,,,1,,
LMTA,"La Montagne",,47.18846838,-1.68921079,,,1,,
LNAI,"Le Nain",,47.22658720,-1.60097182,,,1,,
LNNI,"Lonnières",,47.32358894,-1.34763497,,,1,,
LNOU,"La Noue",,47.14070793,-1.60744492,,,1,,
LNTT,"Linot",,47.26539284,-1.52612921,,,1,,
LOIR,"Loire",,47.24846389,-1.48652555,,,1,,
LOMB,"Lombarderie",,47.23363952,-1.55551448,,,1,,
LONG,"Longchamp",,47.23491246,-1.58217215,,,1,,
LPBA,"Bac du Pellerin",,47.20293814,-1.75489396,,,1,,
LPEL,"Le Pellerin",,47.20067171,-1.75953423,,,1,,
LPLE,"La Plée",,47.19317355,-1.46273233,,,1,,
LPME,"La Plume",,47.19491281,-1.50547068,,,1,,
LRAY,"Le Gray 1",,47.28419403,-1.58684812,,,1,,
LRCH,"La Roche",,47.21648637,-1.51926306,,,1,,
LRHE,"Les Roches",,47.26311910,-1.58030790,,,1,,
LRNE,"Lourneau",,47.20026797,-1.48825735,,,1,,
LRYA,"Le Gray 2",,47.28335549,-1.58401365,,,1,,
LSAL,"La Salle",,47.21447818,-1.68836546,,,1,,
LSLL,"Les Salles",,47.25038310,-1.53608288,,,1,,
LSOU,"La Source",,47.30554030,-1.55172103,,,1,,
LSYY,"Léon Say",,47.22965417,-1.56922558,,,1,,
LTOU,"Le Tour",,47.15162330,-1.68948372,,,1,,
LUNI,"Lieu Unique",,47.21584309,-1.54529314,,,1,,
LYBR,"Lycée Brottier",,47.16062337,-1.67778337,,,1,,
LYCQ,"Lycée Estienne d'Orves",,47.27940410,-1.49199735,,,1,,
LYOR,"Lycée d'Orbigny",,47.15430431,-1.68042474,,,1,,
LYPE,"Lycée Appert",,47.25108331,-1.61076828,,,1,,
LYRI,"Lycée Rieffel",,47.25545605,-1.64243254,,,1,,
LZCA,"Lusançay",,47.20271247,-1.58261457,,,1,,
MAAR,"Maillardière",,47.27390876,-1.63411928,,,1,,
MADO,"Mandon",,47.16044373,-1.47075359,,,1,,
MAGA,"Gare de Mauves",,47.29319126,-1.38983847,,,1,,
MAI8,"8 Mai",,47.18927594,-1.55168223,,,1,,
MALL,"Mail",,47.26905318,-1.61162839,,,1,,
MARR,"Maison d'Arrêt",,47.26644048,-1.50332850,,,1,,
MASS,"Massigné",,47.29892681,-1.57950986,,,1,,
MATI,"Matière",,47.27636669,-1.44888860,,,1,,
MAUC,"Centre De Mauves",,47.29672720,-1.39289412,,,1,,
MAZE,"Mazères",,47.31365297,-1.35064121,,,1,,
MBLA,"Mont Blanc",,47.17678040,-1.55588276,,,1,,
MBOU,"Mairie de Bouguenais",,47.17898229,-1.61877725,,,1,,
MBRU,"Moulin Brûlé",,47.25941448,-1.65455915,,,1,,
MBSE,"Moulin Boisseau",,47.28841846,-1.48416682,,,1,,
MCAS,"Moulin Cassé",,47.25627066,-1.46917285,,,1,,
MCCO,"Marché Commun",,47.25965126,-1.49998198,,,1,,
MCHA,"Mairie de Chantenay",,47.20632251,-1.58785112,,,1,,
MCOU,"Mairie de Couëron",,47.21210935,-1.72701210,,,1,,
MCUR,"Madame Curie",,47.18913046,-1.55431015,,,1,,
MDAR,"Maison des Arts",,47.21191100,-1.61749986,,,1,,
MDEL,"Mandel",,47.20259358,-1.53712696,,,1,,
MDLA,"Moulin des Landes",,47.26201252,-1.48144859,,,1,,
MDNE,"Madeleine",,47.27578470,-1.48351500,,,1,,
MDOU,"Mairie de Doulon",,47.22664991,-1.51881240,,,1,,
MDPO,"Moulin de Porterie",,47.27577049,-1.51215323,,,1,,
MDRE,"Madoire",,47.26505485,-1.63890636,,,1,,
MDSI,"Mondésir",,47.21781799,-1.56881354,,,1,,
MDTH,"Médiathèque",,47.21109669,-1.56108622,,,1,,
MEDI,"Méditerranée",,47.27115318,-1.48508273,,,1,,
MELI,"Méliès",,47.18158427,-1.55615938,,,1,,
META,"Métairie",,47.21380508,-1.69841717,,,1,,
MGAL,"Marie Galante",,47.26419564,-1.45095974,,,1,,
MGCH,"Monge - Chauvinière",,47.25360934,-1.57437802,,,1,,
MGDR,"Mongendrière",,47.29265614,-1.55424760,,,1,,
MGEL,"Margelle",,47.27275502,-1.59419306,,,1,,
MGIN,"Mangin",,47.20157572,-1.54502470,,,1,,
MGLI,"Magnoliers",,47.22668850,-1.60514947,,,1,,
MGNO,"Mignonnerie",,47.24320342,-1.48231155,,,1,,
MGUA,"Mainguais",,47.28268930,-1.48548430,,,1,,
MHDI,"Mahaudières",,47.18892013,-1.56042533,,,1,,
MHUI,"Moulin à l'Huile",,47.17697847,-1.56259427,,,1,,
MIAI,"Minais",,47.25704904,-1.46613416,,,1,,
MICH,"Michelet",,47.23451194,-1.55739090,,,1,,
MIEA,"Millenia",,47.12392302,-1.63047185,,,1,,
MIMO,"Mimosas",,47.24131235,-1.58760993,,,1,,
MIND,"Mairie d'Indre",,47.20072201,-1.66828235,,,1,,
MITR,"Mitrie",,47.22781260,-1.52532451,,,1,,
MKSU,"Malakoff",,47.21643810,-1.52132434,,,1,,
MLAN,"Magellan",,47.18820355,-1.46440884,,,1,,
MLCH,"Morlachère",,47.16200253,-1.48364677,,,1,,
MLCS,"Moulin Cassé",,47.15575719,-1.70982025,,,1,,
MLDR,"Maladrie",,47.18808116,-1.49420236,,,1,,
MLHE,"Moulin Hérel",,47.21943170,-1.63753725,,,1,,
MLIN,"Moulin",,47.18869787,-1.50367568,,,1,,
MLLI,"Mellinet",,47.21120208,-1.57567711,,,1,,
MLNE,"Moulinets",,47.20991436,-1.62897353,,,1,,
MLON,"Mulonnière",,47.26553025,-1.54995093,,,1,,
MLRA,"Malraux",,47.25439837,-1.51747206,,,1,,
MMSS,"Mermoz",,47.19876891,-1.51554456,,,1,,
MNEF,"Moulin Neuf",,47.22979973,-1.51648760,,,1,,
MNFA,"Manufacture",,47.21869770,-1.53773253,,,1,,
MNIE,"Moulinier",,47.13542018,-1.66576140,,,1,,
MNOT,"Minoterie",,47.21682889,-1.72160645,,,1,,
MNSS,"Malnoue",,47.20329728,-1.50510792,,,1,,
MNTR,"Ménétrier",,47.24126615,-1.52382702,,,1,,
MNVE,"Maison Neuve",,47.27473998,-1.46732416,,,1,,
MOCT,"Moulin Collet",,47.20030957,-1.76609112,,,1,,
MOET,"Mouettes",,47.21050196,-1.74226907,,,1,,
MOIN,"Moinard",,47.21334670,-1.72942086,,,1,,
MONE,"Moinet",,47.26579094,-1.49252394,,,1,,
MORH,"Morrhonnière - Petit Port",,47.24153989,-1.55626804,,,1,,
MOTE,"Motte Rouge",,47.22891234,-1.55355476,,,1,,
MOUT,"Moutonnerie",,47.21955608,-1.53341505,,,1,,
MOVA,"Mairie d'Orvault",,47.27115286,-1.62371045,,,1,,
MOZI,"Monzie",,47.20344488,-1.53993347,,,1,,
MPAU,"Marcel Paul",,47.24580140,-1.61571930,,,1,,
MPER,"Millepertuis",,47.22198733,-1.67944144,,,1,,
MPMN,"Melpomène",,47.27757603,-1.50004475,,,1,,
MPTA,"Maison Poitard",,47.14698519,-1.64825784,,,1,,
MQDI,"Marquis de Dion",,47.29713845,-1.48785519,,,1,,
MQLI,"Mocquelière",,47.23327546,-1.61860733,,,1,,
MRAI,"Maraîchers",,47.18464736,-1.51054005,,,1,,
MRDI,"Maison Radieuse",,47.18787779,-1.56639130,,,1,,
MREZ,"Mairie de Rezé",,47.19128907,-1.56986003,,,1,,
MRGE,"Morges",,47.16497092,-1.47198795,,,1,,
MRIE,"Maurienne",,47.27533872,-1.44307679,,,1,,
MROT,"Moulin Rothard",,47.19588722,-1.74111289,,,1,,
MRRI,"Marrière",,47.23756781,-1.52539554,,,1,,
MRTE,"Marterie",,47.17844575,-1.53147770,,,1,,
MRZE,"Marzilles",,47.18272461,-1.47575822,,,1,,
MSHE,"Mairie de St-Herblain",,47.21088261,-1.64876308,,,1,,
MSLL,"Marseillaise",,47.20746446,-1.59192511,,,1,,
MSOR,"Mairie des Sorinières",,47.14883180,-1.53174610,,,1,,
MSSI,"Mississipi",,47.23705873,-1.60929270,,,1,,
MTEI,"Monteil",,47.21413456,-1.54895359,,,1,,
MTLI,"Martellière",,47.19916262,-1.52646160,,,1,,
MTRA,"Mortrais",,47.12834561,-1.61636739,,,1,,
MTYY,"Monty",,47.27423490,-1.43318564,,,1,,
MULI,"Mouline",,47.32354309,-1.55300563,,,1,,
MVAN,"Mortier Vannerie",,47.18016409,-1.49943751,,,1,,
MVRD,"Monteverdi",,47.26655885,-1.44637480,,,1,,
MVSI,"Mauvoisins",,47.19003425,-1.52552799,,,1,,
MZUR,"Mazure",,47.25798087,-1.48072940,,,1,,
NATL,"Aéroport",,47.15794554,-1.60132215,,,1,,
NBEL,"Nouveau Bêle",,47.26871804,-1.50189773,,,1,,
NBLA,"Noé Blanche",,47.25656666,-1.50720295,,,1,,
NCTE,"Noé Cottée",,47.19408208,-1.47862574,,,1,,
NDRE,"Naudières",,47.17312567,-1.53675174,,,1,,
NETR,"Neustrie",,47.17591416,-1.59339984,,,1,,
NIAG,"Niagara",,47.30597506,-1.49337372,,,1,,
NILL,"Nil",,47.24164709,-1.60752179,,,1,,
NIZA,"Nizan",,47.20579506,-1.55029613,,,1,,
NLBR,"Noë Lambert",,47.23010017,-1.52849772,,,1,,
NLLA,"Noë Allais",,47.22034908,-1.68862739,,,1,,
NOAH,"Noë St Jean",,47.21917869,-1.73502173,,,1,,
NOHH,"North House",,47.19570054,-1.57371149,,,1,,
NONO,"Noë Nozou",,47.13023685,-1.63718873,,,1,,
NOSH,"Noëlles",,47.24030120,-1.60434235,,,1,,
NRCA,"Noë Rocard",,47.16336555,-1.49060550,,,1,,
NRDA,"Neruda",,47.21770268,-1.61387077,,,1,,
NVER,"Noue Verrière",,47.27598037,-1.57117828,,,1,,
OCAN,"Océane",,47.22754726,-1.63596515,,,1,,
OCEA,"Couëron Océan",,47.21341719,-1.73917976,,,1,,
OCOR,"Ouche Cormier",,47.26463543,-1.62347497,,,1,,
ODLA,"Ouche des landes",,47.19501958,-1.48284016,,,1,,
ODNE,"Ordronneau",,47.19383903,-1.57492591,,,1,,
OGVA,"Orvault Grand Val",,47.26296316,-1.59450234,,,1,,
OLIV,"Olivier",,47.21746962,-1.72482009,,,1,,
OLVE,"Oliveraie",,47.18796569,-1.53045998,,,1,,
OLYM,"Olympe de Gouges",,47.30898935,-1.54466663,,,1,,
OMRL,"Orvault Morlière",,47.24705784,-1.60345550,,,1,,
ONCH,"Onchères",,47.20270804,-1.46697460,,,1,,
OQNE,"Ouche Quinet",,47.19600218,-1.50413238,,,1,,
ORNG,"La Chapelle Aulnay",,47.30851025,-1.54018924,,,1,,
ORVA,"Orvault",,47.27871075,-1.64020160,,,1,,
OSAN,"Ouessant",,47.27004095,-1.44671917,,,1,,
OTAG,"50 Otages",,47.21976800,-1.55563291,,,1,,
PABO,"Paix",,47.18242459,-1.59241798,,,1,,
PACQ,"Parc",,47.27264258,-1.48389247,,,1,,
PAEB,"Pablée",,47.21576383,-1.74014384,,,1,,
PAJO,"Petit Anjou",,47.20582906,-1.50456545,,,1,,
PALL,"Pont Allard",,47.19678084,-1.66642936,,,1,,
PAMI,"Palmiers",,47.19002854,-1.53299779,,,1,,
PAON,"Papillons",,47.14602381,-1.51906803,,,1,,
PAPO,"Parc Potager",,47.23591597,-1.52249270,,,1,,
PATR,"Patis Rondin",,47.24774407,-1.51691834,,,1,,
PB1B,"Parc de la Bouvre",,47.17607798,-1.61411900,,,1,,
PBAI,"Parc Bel Air",,47.17851216,-1.47464856,,,1,,
PBFF,"Paimboeuf",,47.17660364,-1.61914048,,,1,,
PBLE,"Patis Brûlé",,47.19926593,-1.50729755,,,1,,
PBOT,"Poulbot",,47.21405521,-1.64802648,,,1,,
PBRE,"Petit Breton",,47.21330177,-1.59937014,,,1,,
PBUY,"Pé de Buzay",,47.20251169,-1.81645639,,,1,,
PBYE,"Port Boyer",,47.24117365,-1.53871952,,,1,,
PBNV,"Port Boyer",,47.24200692,-1.54602336,,,1,,
PCBI,"Picabia",,47.25465387,-1.57674827,,,1,,
PCDI,"Picaudière",,47.27967119,-1.48513609,,,1,,
PCLO,"Petit Clos",,47.20528749,-1.51000057,,,1,,
PCNN,"Planchonnais",,47.25349581,-1.47473853,,,1,,
PCPE,"Porte de La Chapelle",,47.25932877,-1.55720231,,,1,,
PCRE,"Poincaré",,47.22278079,-1.58517693,,,1,,
PCSI,"Petite Censive",,47.26046858,-1.56105454,,,1,,
PCTI,"Petit Chantilly",,47.25444230,-1.60066741,,,1,,
PCVO,"Pontecorvo",,47.24613440,-1.53265908,,,1,,
PCZI,"Pont de Chézine",,47.23806128,-1.61441856,,,1,,
PDAN,"Pas d'Ane",,47.18130130,-1.47043113,,,1,,
PDCE,"Pont du Cens",,47.24893386,-1.57703594,,,1,,
PDEA,"Porteurs d'Eau",,47.27148994,-1.59767026,,,1,,
PDOU,"Porte Douillard",,47.28949725,-1.51845663,,,1,,
PDPI,"Pomme de Pin",,47.26711133,-1.59533142,,,1,,
PDUC,"Prairie au Duc",,47.20424565,-1.56434850,,,1,,
PEDR,"Perdriaux",,47.16130365,-1.48570837,,,1,,
PEGE,"Pégers",,47.13756574,-1.47154333,,,1,,
PELO,"Pelousière",,47.20770127,-1.64699156,,,1,,
PEON,"Perron",,47.22442310,-1.60080590,,,1,,
PERR,"Perray",,47.24753547,-1.51413107,,,1,,
PETR,"Pétrels",,47.25434124,-1.50706676,,,1,,
PFNA,"Purfina",,47.19458586,-1.63496554,,,1,,
PGRI,"Pagerie",,47.17867722,-1.65315714,,,1,,
PGTI,"Plinguetière",,47.13362595,-1.61313247,,,1,,
PHTR,"Parc Chantrerie",,47.28615181,-1.52092464,,,1,,
PHVE,"Pré Hervé",,47.24364203,-1.51760802,,,1,,
PIAO,"Piano'cktail",,47.17481481,-1.60637767,,,1,,
PIBL,"Pierre Blanche",,47.17203543,-1.62725386,,,1,,
PIPA,"Pipay",,47.22579664,-1.53695632,,,1,,
PIRM,"Pirmil",,47.19609738,-1.54268626,,,1,,
PISE,"Pin Sec",,47.24339597,-1.51807169,,,1,,
PJOU,"Point du Jour",,47.26489469,-1.44356868,,,1,,
PLAC,"Placis",,47.19966003,-1.51986775,,,1,,
PLAE,"Planche Etienne",,47.16588421,-1.62529688,,,1,,
PLBL,"Port la Blanche",,47.27190215,-1.51644776,,,1,,
PLCL,"Polyclinique",,47.22798443,-1.61175960,,,1,,
PLES,"Plessis",,47.30097239,-1.55241195,,,1,,
PLGU,"Pouliguen",,47.23943362,-1.54311094,,,1,,
PLNA,"Port launay",,47.20966706,-1.74623323,,,1,,
PLOR,"Ploreau",,47.30303836,-1.55190698,,,1,,
PLPC,"Place des Pêcheurs",,47.13636635,-1.66784775,,,1,,
PLSS,"Plessis",,47.26034286,-1.66000278,,,1,,
PLTI,"Platière",,47.19454583,-1.56108865,,,1,,
PMAR,"Pont Marchand",,47.26063500,-1.63127171,,,1,,
PMEU,"Port aux Meules",,47.16542361,-1.49301343,,,1,,
PMTR,"Pont de la Métairie",,47.26243556,-1.44597452,,,1,,
PMVE,"Prairie de Mauves",,47.22002746,-1.51668533,,,1,,
PNLU,"Pinier",,47.25272660,-1.48165714,,,1,,
PNPI,"Pont Pilet",,47.33946774,-1.57233250,,,1,,
PNRZ,"Pinier",,47.18269794,-1.54555296,,,1,,
PNTI,"Plantiveau",,47.24652809,-1.51147414,,,1,,
POEC,"Portechaise",,47.20060966,-1.52606786,,,1,,
POIT,"Poitou",,47.22408956,-1.56521787,,,1,,
POLE,"Poulenc",,47.25537983,-1.58109813,,,1,,
POMM,"Pommeraie",,47.14569143,-1.69505174,,,1,,
PONT,"Pontereau",,47.30646398,-1.37895717,,,1,,
POON,"Potiron",,47.27045471,-1.51885088,,,1,,
POST,"Poste",,47.29525238,-1.55409647,,,1,,
POTT,"Pottier",,47.17761741,-1.62727348,,,1,,
POYA,"Poyaux",,47.16662633,-1.53110204,,,1,,
PPDO,"Pompidou",,47.20921740,-1.52826470,,,1,,
PPFA,"Petit Port",,47.24360737,-1.55737478,,,1,,
PPLI,"Peupliers",,47.19961010,-1.49566849,,,1,,
PPOU,"Pré Poulain",,47.27201878,-1.44454493,,,1,,
PPSI,"Petit Plessis",,47.30151645,-1.38647413,,,1,,
PPTR,"Papotière",,47.24012385,-1.49684202,,,1,,
PPUN,"Petit Port - Facultés",,47.24307143,-1.54736236,,,1,,
PRCE,"Procé",,47.22261099,-1.58172180,,,1,,
PRDI,"Praudière",,47.25734760,-1.58375459,,,1,,
PREU,"Preux",,47.22150556,-1.61273700,,,1,,
PRFO,"Profondine",,47.19607639,-1.48844802,,,1,,
PRGE,"Portail Rouge",,47.24438574,-1.50436203,,,1,,
PRHE,"Petit Rocher",,47.24056485,-1.47901276,,,1,,
PRIM,"Primevères",,47.22485151,-1.67292644,,,1,,
PRMI,"Pyramide",,47.20802408,-1.49262732,,,1,,
PRNE,"Perrines",,47.22762841,-1.51545990,,,1,,
PROU,"Pont Rousseau - Martyrs",,47.19178095,-1.54865876,,,1,,
PRRI,"Perrières",,47.30941803,-1.55213445,,,1,,
PRSS,"Pressoir",,47.12363426,-1.63901916,,,1,,
PRTE,"Portereau",,47.16825014,-1.50160574,,,1,,
PRUT,"Proutière",,47.19778933,-1.78062875,,,1,,
PRZE,"Porte de Rezé",,47.15727632,-1.54095989,,,1,,
PSAU,"Porte de Sautron",,47.25075097,-1.61875857,,,1,,
PSCE,"Plaisance",,47.24007584,-1.59112436,,,1,,
PSEV,"Parc de la Sèvre",,47.16437291,-1.47922297,,,1,,
PSIN,"Pasteur",,47.20100501,-1.67860290,,,1,,
PSME,"Place St-Méen",,47.31905411,-1.34723337,,,1,,
PSOR,"Prières",,47.15039474,-1.52640105,,,1,,
PSPO,"Parc des Sports",,47.26048815,-1.44903152,,,1,,
PSUD,"Pôle Sud",,47.18885603,-1.46985073,,,1,,
PTBO,"Petit Bois",,47.18543623,-1.67843130,,,1,,
PTCH,"Patache",,47.27094514,-1.61918524,,,1,,
PTEC,"Polytech",,47.28072041,-1.51387821,,,1,,
PTGO,"Poitou",,47.20978970,-1.46918162,,,1,,
PTIS,"Plessis Tison",,47.23657285,-1.53363350,,,1,,
PTLA,"CES Petite Lande",,47.17778377,-1.55012242,,,1,,
PTNE,"Platanes",,47.24528935,-1.52514381,,,1,,
PTON,"Portillon",,47.14929216,-1.46906198,,,1,,
PTPS,"Printemps",,47.18848044,-1.50028186,,,1,,
PTQQ,"Portricq",,47.26511636,-1.52125751,,,1,,
PTRE,"Portereau",,47.19209512,-1.47585618,,,1,,
PTRI,"Patouillerie",,47.24544743,-1.58074734,,,1,,
PTSC,"Petits Champs Blancs",,47.28107227,-1.42011911,,,1,,
PTUR,"Pâtures",,47.30394147,-1.55656325,,,1,,
PTVI,"Patis Viaud",,47.13860338,-1.45757987,,,1,,
PTYY,"Planty",,47.17527972,-1.49489788,,,1,,
PUCH,"Pluchets",,47.21860733,-1.65448524,,,1,,
PVIL,"Petit Village",,47.21701936,-1.65042590,,,1,,
PVLO,"Pavillon",,47.14360573,-1.67929774,,,1,,
PVTO,"Porte de Vertou",,47.18113532,-1.50569592,,,1,,
PXCE,"Port aux Cerises",,47.31180840,-1.54131459,,,1,,
QANT,"Quai des Antilles",,47.20370768,-1.56948729,,,1,,
QBNA,"Quai Brunais",,47.19614364,-1.66872074,,,1,,
QSCO,"Quai Surcouf",,47.19485573,-1.57787423,,,1,,
QTNE,"Quintaine",,47.21669592,-1.46245832,,,1,,
RABI,"Rabine",,47.26111004,-1.64378223,,,1,,
RAGO,"Ragon",,47.16515219,-1.54260646,,,1,,
RAVA,"Ravardière",,47.18381131,-1.66533531,,,1,,
RAZA,"Ranzay",,47.25266127,-1.52892899,,,1,,
RBAL,"Roche Ballue",,47.17945630,-1.65573184,,,1,,
RBHI,"René Bouhier",,47.20992202,-1.57135655,,,1,,
RBNI,"Robinière",,47.16364446,-1.53554305,,,1,,
RBRN,"René Bernier",,47.19383095,-1.49928730,,,1,,
RCAS,"René Cassin",,47.26484550,-1.57378312,,,1,,
RCER,"Rocher",,47.21318792,-1.63949648,,,1,,
RCPE,"Route de la Chapelle",,47.25488330,-1.57611818,,,1,,
RCUU,"Rochu",,47.21518272,-1.66648430,,,1,,
RDFY,"Raoul Dufy",,47.22266910,-1.59962970,,,1,,
RDGO,"Radigois",,47.19299621,-1.51795401,,,1,,
RDIE,"Rouaudière",,47.29430185,-1.58441987,,,1,,
RDMV,"Rue de Mauves",,47.27147626,-1.43280449,,,1,,
RDNT,"Rue de Nantes",,47.15132045,-1.53426139,,,1,,
REDR,"Rédras",,47.16476032,-1.50249132,,,1,,
REFR,"Réfractaires",,47.30302925,-1.54688027,,,1,,
RETA,"Retas",,47.15488605,-1.53691685,,,1,,
REYN,"Reynière",,47.25575496,-1.57928151,,,1,,
RGNI,"Reigniers",,47.13723399,-1.46618745,,,1,,
RIND,"Rue d'Indre",,47.20421700,-1.66410436,,,1,,
RLEA,"Rouleaux",,47.20010418,-1.46605219,,,1,,
RLON,"Rennes - Longchamp",,47.23863912,-1.57066471,,,1,,
RMAU,"Roche Maurice",,47.19634080,-1.61825240,,,1,,
RMNE,"Romanet",,47.21187936,-1.60885800,,,1,,
RNAN,"Renan",,47.21630900,-1.61353784,,,1,,
RNDR,"Renardières",,47.14910684,-1.60179726,,,1,,
RNIE,"Rinière",,47.12902057,-1.63597141,,,1,,
RNLT,"Renault",,47.26330519,-1.49542716,,,1,,
RNRE,"Renaudières",,47.29948020,-1.50796616,,,1,,
RNTI,"Reinetière",,47.25685535,-1.49150955,,,1,,
ROCA,"Rocade",,47.16332955,-1.47436833,,,1,,
ROET,"Rouet",,47.14861980,-1.52228473,,,1,,
ROTY,"Le Roty",,47.30473353,-1.54550666,,,1,,
ROUS,"Roussière",,47.29449718,-1.55296122,,,1,,
RPAR,"Rond-Point de Paris",,47.23402862,-1.53649997,,,1,,
RPBL,"République",,47.20512291,-1.55577299,,,1,,
RPCH,"Repos de Chasse",,47.21669619,-1.59958947,,,1,,
RPSI,"Ripossière",,47.19151299,-1.53457436,,,1,,
RQIO,"Trentemoult Roquios",,47.19554245,-1.58220713,,,1,,
RREN,"Rond-Point de Rennes",,47.23314315,-1.56630680,,,1,,
RROL,"Romain Rolland",,47.20679342,-1.60987475,,,1,,
RSCO,"Robert Scott",,47.18692832,-1.45899957,,,1,,
RSLI,"Rousselière",,47.17564052,-1.51833318,,,1,,
RSNB,"Rosenberg",,47.23568862,-1.65981468,,,1,,
RSRA,"Roseraie",,47.26060696,-1.52838433,,,1,,
RTPA,"Route de Paris",,47.26670738,-1.48580083,,,1,,
RTSC,"Recteur Schmitt",,47.25317113,-1.55287405,,,1,,
RUET,"Ruette",,47.23348776,-1.51080036,,,1,,
RVAN,"Rond-Point de Vannes",,47.22996631,-1.57181485,,,1,,
RVDI,"Rivaudière",,47.22710123,-1.65034441,,,1,,
RVER,"Roches Vertes",,47.18520873,-1.52399086,,,1,,
RZEE,"Razée",,47.21494103,-1.46596863,,,1,,
SADU,"Santos Dumont",,47.25954687,-1.56668405,,,1,,
SAGL,"St-Aignan de Grand Lieu",,47.12298497,-1.63468604,,,1,,
SAIG,"St-Aignan",,47.20822260,-1.57838290,,,1,,
SALE,"Salentine",,47.24848662,-1.61026837,,,1,,
SAOR,"Sables d'Or",,47.26504668,-1.45583979,,,1,,
SAPI,"Saupin",,47.18400789,-1.47565278,,,1,,
SATR,"Sautron",,47.26545283,-1.68384141,,,1,,
SAVA,"Savarières",,47.20862083,-1.48968309,,,1,,
SBAI,"St-Blaise",,47.16722795,-1.46909917,,,1,,
SBLL,"Sébilleau",,47.20485638,-1.53170173,,,1,,
SBSA,"St-Jean-Baptiste de la Salle",,47.23346567,-1.55991441,,,1,,
SCHW,"Schweitzer",,47.29472412,-1.49488240,,,1,,
SCLE,"St-Clément",,47.22212067,-1.54697817,,,1,,
SDAV,"Square Daviais",,47.21157725,-1.55758150,,,1,,
SDON,"St-Donatien",,47.22891279,-1.54089736,,,1,,
SECH,"Schoelcher",,47.22061878,-1.62817662,,,1,,
SEIL,"Seil",,47.19434129,-1.57074217,,,1,,
SERC,"Sercel",,47.26684090,-1.48948857,,,1,,
SEVR,"Sèvres",,47.18607370,-1.52723055,,,1,,
SFEL,"St-Félix",,47.23154179,-1.55639716,,,1,,
SFRA,"San Francisco",,47.21769021,-1.51647205,,,1,,
SGRA,"Sageran",,47.21952906,-1.57118451,,,1,,
SHMD,"St-Hermeland",,47.14424919,-1.69605748,,,1,,
SILL,"Sillon de Bretagne",,47.24554784,-1.60849996,,,1,,
SINI,"Sinière",,47.22569653,-1.67781328,,,1,,
SJAC,"St-Jacques",,47.19390885,-1.53762550,,,1,,
SJBO,"St-Jean-de-Boiseau",,47.19581382,-1.72490916,,,1,,
SJEA,"St-Jean",,47.19173674,-1.52363987,,,1,,
SJPO,"St-Joseph de Porterie",,47.26782991,-1.51702879,,,1,,
SLAU,"St-Laurent",,47.22304488,-1.59727625,,,1,,
SLCE,"Ste-Luce",,47.25034078,-1.48489530,,,1,,
SLDA,"Solidarité",,47.21716363,-1.58746721,,,1,,
SLEN,"Suzanne Lenglen",,47.22902289,-1.58820901,,,1,,
SLGE,"Salorges",,47.20473367,-1.57500596,,,1,,
SLVI,"St-Léger-les-Vignes",,47.13650462,-1.73016715,,,1,,
SMAR,"St-Martin",,47.21339353,-1.69303490,,,1,,
SMHI,"St-Mihiel",,47.22350128,-1.55339129,,,1,,
SMIC,"St-Michel",,47.22412469,-1.64457606,,,1,,
SNIC,"St-Nicolas",,47.21557270,-1.56045659,,,1,,
SNUC,"Stade SNUC",,47.22802113,-1.58069543,,,1,,
SOCH,"Souchais",,47.30772568,-1.48952165,,,1,,
SOEC,"Souchais École",,47.30363818,-1.49835918,,,1,,
SORI,"Sorin",,47.19532813,-1.56785562,,,1,,
SOUI,"Souillarderie",,47.23812480,-1.51604271,,,1,,
SOWE,"Soweto",,47.23330119,-1.65163707,,,1,,
SPHI,"Saphirs",,47.20490914,-1.65791502,,,1,,
SPIN,"Saupin",,47.21421066,-1.53741025,,,1,,
SPLO,"Ste-Philomène",,47.21191661,-1.72471184,,,1,,
SPRU,"Sully Prudhomme",,47.23608056,-1.59656228,,,1,,
SPSA,"St-Paul - Salengro",,47.18533965,-1.54627299,,,1,,
SRDI,"Sarradin",,47.22054098,-1.57016116,,,1,,
SRNI,"Les Sorinières",,47.15912062,-1.51811864,,,1,,
SRTR,"Sartre",,47.21425401,-1.64021155,,,1,,
SSEB,"St-Sébastien",,47.20751919,-1.50290124,,,1,,
SSGN,"Simone Signoret",,47.17509653,-1.56356412,,,1,,
SSTA,"St-Stanislas",,47.22221355,-1.55658556,,,1,,
STBS,"Stade",,47.19128888,-1.70794766,,,1,,
STHR,"Alexandre Vincent - Ste-Thérèse",,47.23268964,-1.57731900,,,1,,
STPI,"St-Pierre",,47.21813713,-1.55194370,,,1,,
STXU,"St-Exupéry",,47.15282524,-1.59480732,,,1,,
SUCO,"Surcouf",,47.26883011,-1.44582637,,,1,,
SVAU,"Savaudière",,47.28929766,-1.51480478,,,1,,
SVDI,"Solvardière",,47.21812989,-1.64190497,,,1,,
SVIN,"Stévin",,47.26006192,-1.63431451,,,1,,
SVNN,"Savonnières",,47.19751105,-1.66285904,,,1,,
SYRM,"Syrma",,47.27691233,-1.47059786,,,1,,
TADI,"Taillandier",,47.21425011,-1.71656179,,,1,,
TAID,"Toutes Aides",,47.22647329,-1.52347072,,,1,,
TBAU,"Thébaudières",,47.31063395,-1.35899287,,,1,,
TBCH,"Trébuchet",,47.21980780,-1.54561388,,,1,,
TBER,"Tristan Bernard",,47.20578740,-1.46481466,,,1,,
TBLY,"Tabarly",,47.19550964,-1.54890169,,,1,,
TCHE,"Trois Chênes",,47.25819923,-1.47415315,,,1,,
TDGA,"Tredégar",,47.25472192,-1.60366184,,,1,,
TEBS,"Tertre",,47.19668838,-1.74451091,,,1,,
TEIF,"Tour Eiffel",,47.19957624,-1.75423909,,,1,,
TENA,"Tertre",,47.21475240,-1.60831111,,,1,,
TERR,"Terray",,47.25184554,-1.52730916,,,1,,
THAT,"Théatre",,47.21632528,-1.72866232,,,1,,
THCE,"Centre de Thouaré",,47.26656282,-1.44136206,,,1,,
THEB,"Thébaudières",,47.24440559,-1.60637221,,,1,,
TILL,"Tillay",,47.22877640,-1.60622627,,,1,,
TJOI,"Toutes Joies",,47.22110137,-1.57297174,,,1,,
TLDI,"Télindière",,47.19612667,-1.73701846,,,1,,
TLSA,"Talensac",,47.22152613,-1.55603184,,,1,,
TMET,"Trois Métairies",,47.17637454,-1.50156206,,,1,,
TMLI,"Tourmaline",,47.22150673,-1.63278645,,,1,,
TMOU,"Trois Moulins",,47.17809121,-1.54421104,,,1,,
TMSS,"Trémissinière",,47.23813849,-1.54439495,,,1,,
TNVA,"Terres Neuvas",,47.18589527,-1.59137929,,,1,,
TOSC,"Toscane",,47.28325066,-1.54836778,,,1,,
TOTR,"Tortière",,47.23528367,-1.54965441,,,1,,
TOUG,"Tougas",,47.19417211,-1.63964834,,,1,,
TPCH,"Terpsichore",,47.28240769,-1.50232396,,,1,,
TPOD,"Tripode",,47.20818082,-1.54062154,,,1,,
TRCA,"Tréca",,47.25023231,-1.50139595,,,1,,
TRIA,"Trianon",,47.27323928,-1.43047033,,,1,,
TRNE,"Tribunes",,47.24912230,-1.56852876,,,1,,
TROC,"Trocardière",,47.18322818,-1.57027848,,,1,,
TRQU,"Terres Quartières",,47.13475509,-1.65911052,,,1,,
TRTS,"Tarentaise",,47.27739769,-1.43406907,,,1,,
TTMO,"Trentemoult",,47.19185759,-1.58199944,,,1,,
TZEL,"Touzelles",,47.20834245,-1.46688875,,,1,,
UBRU,"Usine Brûlée",,47.19496069,-1.63203466,,,1,,
UGAZ,"Usine à gaz",,47.19460515,-1.62045512,,,1,,
UTCH,"Utrecht",,47.28311814,-1.55219510,,,1,,
UTLO,"Utrillo",,47.18237070,-1.56339654,,,1,,
VAIL,"Vaillant",,47.19955918,-1.67102747,,,1,,
VALL,"Vallée",,47.25084294,-1.57662145,,,1,,
VARI,"Vincent Auriol",,47.22180531,-1.59234502,,,1,,
VCSO,"Vaucanson",,47.21288937,-1.58152667,,,1,,
VDCE,"Val du Cens",,47.26107161,-1.66511809,,,1,,
VDLO,"Vieux Doulon",,47.23543282,-1.50402980,,,1,,
VDNI,"Ville au Denis",,47.16275335,-1.62704885,,,1,,
VDUR,"Verdure",,47.19589733,-1.65347091,,,1,,
VEAG,"Véga",,47.28002103,-1.46358168,,,1,,
VEGE,"Verger",,47.29310263,-1.49706413,,,1,,
VEIE,"Verrière",,47.27687581,-1.57048148,,,1,,
VEND,"Vendée",,47.20825240,-1.46860707,,,1,,
VEPR,"Vesprées",,47.24605605,-1.50223626,,,1,,
VERL,"Verlaine",,47.23327621,-1.59454443,,,1,,
VEXP,"Village Expo",,47.21466281,-1.61513213,,,1,,
VFOU,"Vieux Four",,47.19088259,-1.70088845,,,1,,
VGAC,"Vincent Gâche",,47.20634369,-1.54820945,,,1,,
VIAR,"Viarme-Talensac",,47.22120689,-1.56262533,,,1,,
VIER,"Viv'Erdre",,47.28563361,-1.55037822,,,1,,
VILE,"Violettes",,47.19746803,-1.50924697,,,1,,
VINE,"Villeneuve",,47.19414521,-1.51322056,,,1,,
VISO,"Vison",,47.24425268,-1.50970482,,,1,,
VIVI,"Viviers",,47.17307675,-1.48489650,,,1,,
VRIE,"Vrière",,47.28218794,-1.55611650,,,1,,
VRPD,"Vert Praud",,47.16650994,-1.54983110,,,1,,
VSCO,"Vincent Scotto",,47.25209006,-1.56629176,,,1,,
DPVT,"Vertonne",,47.18698281,-1.49432457,,,1,,
VTOU,"Vertou",,47.16904084,-1.47117202,,,1,,
VVRE,"Vièvre",,47.19805570,-1.81437125,,,1,,
WATT,"Wattignies",,47.20379747,-1.54642021,,,1,,
WBDT,"Willy Brandt",,47.17291989,-1.56315593,,,1,,
WDIS,"Walt Disney",,47.19494093,-1.48998681,,,1,,
XBON,"Croix Bonneau",,47.20964339,-1.59580189,,,1,,
XJAN,"Croix Jeannette",,47.17156865,-1.62390925,,,1,,
XREZ,"Croix de Rezé",,47.18005941,-1.55903662,,,1,,
XSYY,"Croisy",,47.25378864,-1.62729497,,,1,,
XTRU,"Croix Truin",,47.19134040,-1.71173740,,,1,,
ZENI,"Zénith",,47.23062180,-1.62938756,,,1,,
ZOLA,"Zola",,47.21377298,-1.58610552,,,1,,
ABCH1,"Abbé Chérel",,47.21004362,-1.65163899,,,0,ABCH,1
ABCH2,"Abbé Chérel",,47.21010645,-1.65174942,,,0,ABCH,1
ABDU1,"Abel Durand",,47.22021763,-1.60339294,,,0,ABDU,1
ABDU2,"Abel Durand",,47.22005849,-1.60325298,,,0,ABDU,1
ABOL1,"Adrienne Bolland",,47.26794667,-1.47660122,,,0,ABOL,1
ABOL2,"Adrienne Bolland",,47.26792095,-1.47680712,,,0,ABOL,1
ACHA1,"Angle Chaillou",,47.26971087,-1.57189622,,,0,ACHA,2
ACHA2,"Angle Chaillou",,47.26981000,-1.57210725,,,0,ACHA,2
ADBO1,"Audubon",,47.21406679,-1.72322787,,,0,ADBO,1
ADBO2,"Audubon",,47.21393466,-1.72304070,,,0,ADBO,1
ADEL1,"Aimé Delrue",,47.20931181,-1.55035994,,,0,ADEL,1
ADEL2,"Aimé Delrue",,47.20898690,-1.55013941,,,0,ADEL,1
ADEL3,"Aimé Delrue",,47.20917361,-1.55005120,,,0,ADEL,2
ADPI1,"Avenue des Pins",,47.25325890,-1.59659981,,,0,ADPI,1
ADPI3,"Avenue des Pins",,47.25370314,-1.59775560,,,0,ADPI,1
AECL1,"Aéroclub",,47.15932625,-1.59829534,,,0,AECL,2
AECL2,"Aéroclub",,47.15938736,-1.59803572,,,0,AECL,2
AEPO1,"D2A - Aéroport",,47.15686225,-1.59741579,,,0,AEPO,2
AEPO2,"D2A - Aéroport",,47.15695907,-1.59727104,,,0,AEPO,2
AESP1,"Aérospatiale",,47.16079973,-1.58795401,,,0,AESP,2
AESP2,"Aérospatiale",,47.16134225,-1.58704692,,,0,AESP,2
AFRA1,"Anatole France",,47.22445344,-1.57114631,,,0,AFRA,1
AFRA2,"Anatole France",,47.22367057,-1.57162985,,,0,AFRA,2
AFRA3,"Anatole France",,47.22395398,-1.57217014,,,0,AFRA,1
AGBE1,"L'Angebert",,47.14056117,-1.45575443,,,0,AGBE,2
AGBE2,"L'Angebert",,47.14069622,-1.45556468,,,0,AGBE,2
AGDR1,"Angebardière",,47.16942145,-1.50521068,,,0,AGDR,1
AGDR2,"Angebardière",,47.16953517,-1.50541958,,,0,AGDR,1
AGV98,"Angevinière",,47.24597226,-1.61104700,,,0,AGVI,1
AGVI1,"Angevinière",,47.24515933,-1.61237710,,,0,AGVI,1
AGVI2,"Angevinière",,47.24503879,-1.61150450,,,0,AGVI,1
AIBU1,"Airbus",,47.15868256,-1.59121766,,,0,AIBU,2
AIBU3,"Airbus",,47.15798334,-1.59127862,,,0,AIBU,2
AIGU1,"Aiguillon",,47.25448411,-1.49660446,,,0,AIGU,2
AIGU2,"Aiguillon",,47.25445035,-1.49691555,,,0,AIGU,2
ALCH1,"Champ de l'Alouette",,47.28291888,-1.58016180,,,0,ALCH,1
ALCH2,"Champ de l'Alouette",,47.28328854,-1.57975212,,,0,ALCH,1
ALDE1,"Allende",,47.17543375,-1.62390587,,,0,ALDE,1
ALDE2,"Allende",,47.17527311,-1.62312916,,,0,ALDE,1
ALDE3,"Allende",,47.17487613,-1.62461491,,,0,ALDE,1
ALDE4,"Allende",,47.17415264,-1.62378337,,,0,ALDE,2
ALNE1,"Aulne",,47.27698152,-1.63902208,,,0,ALNE,1
ALNE2,"Aulne",,47.27628919,-1.63841208,,,0,ALNE,1
AMCA1,"Armoricaine",,47.25857293,-1.64870677,,,0,AMCA,1
AMCA2,"Armoricaine",,47.25826258,-1.64752203,,,0,AMCA,1
AMER1,"Américains",,47.23607974,-1.56826271,,,0,AMER,1
AMER2,"Américains",,47.23579689,-1.56789162,,,0,AMER,1
AMPE1,"Ampère",,47.26072504,-1.55319084,,,0,AMPE,1
AMPE2,"Ampère",,47.26076026,-1.55348181,,,0,AMPE,1
ANGE1,"Les Anges",,47.27529891,-1.63711690,,,0,ANGE,1
ANGE2,"Les Anges",,47.27515795,-1.63710377,,,0,ANGE,1
ANTO1,"Antons",,47.25765319,-1.62261111,,,0,ANTO,1
ANTO2,"Antons",,47.25783878,-1.62331809,,,0,ANTO,1
APAV1,"Apave",,47.22570240,-1.64766184,,,0,APAV,1
APAV2,"Apave",,47.22537146,-1.64749042,,,0,APAV,1
APER1,"Ampère",,47.30219818,-1.50783344,,,0,APER,1
APER2,"Ampère",,47.30204210,-1.50792283,,,0,APER,1
APRE1,"Ambroise Paré",,47.22889740,-1.60863904,,,0,APRE,1
APRE2,"Ambroise Paré",,47.22908815,-1.60856584,,,0,APRE,1
AQUI1,"Aquitaine",,47.20988552,-1.61497360,,,0,AQUI,1
AQUI2,"Aquitaine",,47.20975523,-1.61483312,,,0,AQUI,1
ARAG1,"Arago",,47.30350530,-1.50484787,,,0,ARAG,1
ARAG2,"Arago",,47.30358086,-1.50498571,,,0,ARAG,1
ARBO1,"Arbois",,47.25867271,-1.58176016,,,0,ARBO,2
ARBO2,"Arbois",,47.25838461,-1.58210153,,,0,ARBO,2
ARCA1,"Arcades",,47.21182995,-1.65277809,,,0,ARCA,1
ARCA2,"Arcades",,47.21202199,-1.65360536,,,0,ARCA,1
ARGO1,"Argonautes",,47.30241995,-1.48191405,,,0,ARGO,1
ARGO2,"Argonautes",,47.30240342,-1.48181490,,,0,ARGO,1
ARMO1,"Armorique",,47.27143538,-1.44489664,,,0,ARMO,2
ARMO2,"Armorique",,47.27152266,-1.44536593,,,0,ARMO,2
ARO93,"Armor",,47.23103865,-1.63182642,,,0,AROR,1
AROR1,"Armor",,47.23102229,-1.63125529,,,0,AROR,1
AROR2,"Armor",,47.23118208,-1.63134913,,,0,AROR,1
AROR3,"Armor",,47.23104050,-1.63182524,,,0,AROR,1
AROR4,"Armor",,47.23102998,-1.63207834,,,0,AROR,1
ATAR1,"Antarès",,47.28166503,-1.45965683,,,0,ATAR,2
ATAR2,"Antarès",,47.28170935,-1.45976056,,,0,ATAR,2
AUCP1,"La Chapelle Aulnay",,47.30818557,-1.54315164,,,0,AUCP,1
AUCP2,"La Chapelle Aulnay",,47.30836323,-1.54335920,,,0,AUCP,1
AUFR1,"L'Aufrère",,47.16734102,-1.52513142,,,0,AUFR,2
AUGE1,"Augé",,47.19498076,-1.51740323,,,0,AUGE,2
AURR1,"Aurore",,47.26488128,-1.58093056,,,0,AURR,2
AURR2,"Aurore",,47.26539508,-1.58147497,,,0,AURR,2
AVEN1,"Aveneaux",,47.23391561,-1.62972968,,,0,AVEN,1
AVEN2,"Aveneaux",,47.23283954,-1.63053322,,,0,AVEN,1
BAGA1,"Bagatelle",,47.24348623,-1.62022099,,,0,BAGA,1
BAGA2,"Bagatelle",,47.24353474,-1.61993625,,,0,BAGA,1
BAIR1,"Bel Air",,47.22575662,-1.55968206,,,0,BAIR,1
BAIR2,"Bel Air",,47.22545539,-1.55924100,,,0,BAIR,1
BALI1,"Balinière",,47.18625167,-1.55378382,,,0,BALI,1
BALI2,"Balinière",,47.18605090,-1.55402157,,,0,BALI,1
BALI3,"Balinière",,47.18466884,-1.55440730,,,0,BALI,1
BALI4,"Balinière",,47.18479616,-1.55413119,,,0,BALI,1
BANS1,"Bois des Anses",,47.24718695,-1.49477063,,,0,BANS,1
BANS2,"Bois des Anses",,47.24706780,-1.49485997,,,0,BANS,1
BANS3,"Bois des Anses",,47.24664486,-1.49490373,,,0,BANS,1
BANS4,"Bois des Anses",,47.24666348,-1.49510213,,,0,BANS,1
BARR1,"La Barre",,47.30875926,-1.38111747,,,0,BARR,2
BARR2,"La Barre",,47.30879510,-1.38151453,,,0,BARR,2
BAS98,"Bastille",,47.17940962,-1.59717695,,,0,BAST,2
BAS99,"Bastille",,47.17898673,-1.59695301,,,0,BAST,2
BAST1,"Bastille",,47.17901270,-1.59695756,,,0,BAST,2
BAST2,"Bastille",,47.17939569,-1.59716272,,,0,BAST,2
BATI1,"Batignolles",,47.25554394,-1.52963613,,,0,BATI,1
BATI2,"Batignolles",,47.25556045,-1.53003021,,,0,BATI,1
BAUG1,"Baugerie",,47.20344362,-1.52086462,,,0,BAUG,1
BAUG2,"Baugerie",,47.20379388,-1.52027534,,,0,BAUG,1
BAVO1,"Basse Orévière",,47.22046457,-1.65898404,,,0,BAVO,2
BAVO2,"Basse Orévière",,47.22038027,-1.65886933,,,0,BAVO,2
BBNI4,"Babinière",,47.25929789,-1.54625658,,,0,BBNI,1
BBON1,"Boisbonne",,47.28686061,-1.50834861,,,0,BBON,2
BBON2,"Boisbonne",,47.28685150,-1.50862194,,,0,BBON,2
BBRE1,"Barbinière",,47.15951428,-1.48173952,,,0,BBRE,1
BBRE2,"Barbinière",,47.15984337,-1.48162038,,,0,BBRE,1
BCES1,"Bois Cesbron",,47.26109438,-1.62448410,,,0,BCES,1
BCES2,"Bois Cesbron",,47.26096955,-1.62431608,,,0,BCES,1
BCGA1,"Bd Charles Gautier",,47.22207394,-1.60729098,,,0,BCGA,1
BCGA2,"Bd Charles Gautier",,47.22197075,-1.60706920,,,0,BCGA,1
BCGA3,"Bd Charles Gautier",,47.22282066,-1.60715830,,,0,BCGA,1
BCGA4,"Bd Charles Gautier",,47.22282517,-1.60702642,,,0,BCGA,1
BCHE1,"Basse Chênaie",,47.24117824,-1.50918217,,,0,BCHE,1
BCHE2,"Basse Chênaie",,47.24145339,-1.50835821,,,0,BCHE,1
BCHE3,"Basse Chênaie",,47.24102763,-1.50856697,,,0,BCHE,1
BCHE4,"Basse Chênaie",,47.24192686,-1.50893315,,,0,BCHE,1
BCNY1,"Bas-Chantenay",,47.19827246,-1.58919017,,,0,BCNY,1
BCNY2,"Bas-Chantenay",,47.19818576,-1.58893273,,,0,BCNY,1
BCNY3,"Bas-Chantenay",,47.19838620,-1.58796689,,,0,BCNY,2
BCNY9,"Bas-Chantenay",,47.19564384,-1.58864718,,,0,BCNY,1
BCOI1,"Branchoire",,47.21785267,-1.60301650,,,0,BCOI,1
BCOI2,"Branchoire",,47.21806578,-1.60339574,,,0,BCOI,1
BCOI3,"Branchoire",,47.21859457,-1.60368322,,,0,BCOI,1
BCOI4,"Branchoire",,47.21781407,-1.60422459,,,0,BCOI,1
BCTT1,"Blanchet",,47.17164754,-1.54336364,,,0,BCTT,1
BCTT2,"Blanchet",,47.17133674,-1.54317866,,,0,BCTT,1
BDAN1,"Bd des Anglais",,47.22639931,-1.58267361,,,0,BDAN,1
BDAN2,"Bd des Anglais",,47.22641956,-1.58332296,,,0,BDAN,1
BDAN3,"Bd des Anglais",,47.22672232,-1.58294850,,,0,BDAN,1
BDAN4,"Bd des Anglais",,47.22617423,-1.58312120,,,0,BDAN,1
BDEL1,"Baudelaire",,47.23363734,-1.59309258,,,0,BDEL,1
BDEL2,"Baudelaire",,47.23393631,-1.59256577,,,0,BDEL,2
BDIN1,"Bodinières",,47.20972628,-1.64307644,,,0,BDIN,1
BDIN2,"Bodinières",,47.20978039,-1.64281346,,,0,BDIN,1
BDIN3,"Bodinières",,47.20990294,-1.64192506,,,0,BDIN,1
BDIN4,"Bodinières",,47.21041219,-1.64170649,,,0,BDIN,1
BDLA1,"Bout des Landes",,47.26742549,-1.58228805,,,0,BDLA,1
BDNN1,"Bourdonnais",,47.20556649,-1.57991993,,,0,BDNN,1
BDNN2,"Bourdonnais",,47.20641639,-1.57950634,,,0,BDNN,1
BDOU1,"Bd de Doulon",,47.22471553,-1.51977559,,,0,BDOU,1
BDOU2,"Bd de Doulon",,47.22432181,-1.52018349,,,0,BDOU,1
BDOU3,"Bd de Doulon",,47.22439761,-1.52020614,,,0,BDOU,1
BDOU6,"Bd de Doulon",,47.22382940,-1.51977252,,,0,BDOU,1
BDOU7,"Bd de Doulon",,47.22407694,-1.51988423,,,0,BDOU,1
BDPA1,"Bout des Pavés",,47.25281077,-1.57620064,,,0,BDPA,1
BDPA2,"Bout des Pavés",,47.25270630,-1.57638613,,,0,BDPA,1
BDPA3,"Bout des Pavés",,47.25353608,-1.57590053,,,0,BDPA,1
BDPA4,"Bout des Pavés",,47.25400007,-1.57626784,,,0,BDPA,2
BDPA5,"Bout des Pavés",,47.25350051,-1.57559500,,,0,BDPA,1
BDPA6,"Bout des Pavés",,47.25336226,-1.57611269,,,0,BDPA,1
BDRI1,"Bourderies",,47.20663320,-1.59590977,,,0,BDRI,1
BDRI2,"Bourderies",,47.20658312,-1.59566158,,,0,BDRI,1
BDSP1,"Bd des Sports",,47.16584432,-1.46801701,,,0,BDSP,1
BDSP2,"Bd des Sports",,47.16564624,-1.46885999,,,0,BDSP,1
BEDR1,"Bel Endroit",,47.15324025,-1.63553094,,,0,BEDR,2
BEDR2,"Bel Endroit",,47.15470970,-1.63398011,,,0,BEDR,2
BEET1,"Bel Être",,47.17945790,-1.56759648,,,0,BEET,1
BEET2,"Bel Être",,47.17925575,-1.56760816,,,0,BEET,1
BEGE1,"Beauger",,47.23426481,-1.55307927,,,0,BEGE,2
BEGE2,"Beauger",,47.23427946,-1.55283174,,,0,BEGE,2
BEHI1,"Behinière",,47.19776970,-1.79257748,,,0,BEHI,2
BEHI2,"Behinière",,47.19701789,-1.79093353,,,0,BEHI,1
BEIL1,"Beillevaire",,47.24955677,-1.60739497,,,0,BEIL,1
BEIL2,"Beillevaire",,47.24938735,-1.60726607,,,0,BEIL,1
BELE1,"Bêle",,47.26475076,-1.51049581,,,0,DPBL,1
BELE2,"Bêle",,47.26493211,-1.51062132,,,0,DPBL,1
BEMZ1,"Belges - Montbazon",,47.23464974,-1.54095759,,,0,BEMZ,2
BEMZ2,"Belges - Montbazon",,47.23439888,-1.54008782,,,0,BEMZ,2
BEMZ3,"Belges - Montbazon",,47.23591154,-1.54085072,,,0,BEMZ,1
BEMZ4,"Belges - Montbazon",,47.23558764,-1.54113534,,,0,BEMZ,1
BENA1,"Beaulieu",,47.20414853,-1.53714172,,,0,BENA,1
BENA2,"Beaulieu",,47.20393339,-1.53713804,,,0,BENA,1
BENA3,"Beaulieu",,47.20344329,-1.53481098,,,0,BENA,1
BENA4,"Beaulieu",,47.20369020,-1.53400286,,,0,BENA,1
BENA5,"Beaulieu",,47.20385171,-1.53721010,,,0,BENA,2
BEOC1,"Belloc",,47.20370786,-1.61459803,,,0,BEOC,2
BEOC2,"Belloc",,47.20305260,-1.61471617,,,0,BEOC,2
BESS1,"Bessonneau",,47.21483112,-1.71376881,,,0,BESS,1
BESS2,"Bessonneau",,47.21462131,-1.71345944,,,0,BESS,1
BETO1,"Belle Etoile",,47.28068352,-1.45206222,,,0,BETO,2
BETO2,"Belle Etoile",,47.28018843,-1.45156128,,,0,BETO,2
BEVA1,"Beauvaiserie",,47.13622454,-1.65440339,,,0,BEVA,1
BEVA2,"Beauvaiserie",,47.13622785,-1.65417792,,,0,BEVA,2
BGAR1,"Bonne Garde",,47.19698852,-1.53126388,,,0,BGAR,1
BGAR2,"Bonne Garde",,47.19677941,-1.53126859,,,0,BGAR,1
BGAR3,"Bonne Garde",,47.19684863,-1.53143348,,,0,BGAR,2
BGCY1,"Beaugency",,47.20327126,-1.48997589,,,0,BGCY,1
BGCY2,"Beaugency",,47.20381536,-1.49018924,,,0,BGCY,1
BGLA1,"Basse-Goulaine",,47.21123001,-1.46655607,,,0,BGLA,2
BGLA2,"Basse-Goulaine",,47.21117541,-1.46670948,,,0,BGLA,2
BGLA3,"Basse-Goulaine",,47.21092041,-1.46488460,,,0,BGLA,1
BGLA4,"Basse-Goulaine",,47.21064215,-1.46458331,,,0,BGLA,1
BGLA5,"Basse-Goulaine",,47.21053568,-1.46611815,,,0,BGLA,1
BGLA6,"Basse-Goulaine",,47.21039161,-1.46603522,,,0,BGLA,1
BGNN1,"Bourgonnière",,47.20664821,-1.65545291,,,0,BGNN,1
BGNN2,"Bourgonnière",,47.20652825,-1.65556160,,,0,BGNN,1
BGOG1,"Bourgogne",,47.24663549,-1.58916721,,,0,BGOG,1
BGOG2,"Bourgogne",,47.24634147,-1.58928450,,,0,BGOG,1
BGRI1,"Bougrière",,47.25508877,-1.47174619,,,0,BGRI,1
BGRI2,"Bougrière",,47.25500061,-1.47207061,,,0,BGRI,1
BGSH1,"Bergerie",,47.23791510,-1.62825286,,,0,BGSH,1
BGSH2,"Bergerie",,47.23780226,-1.62849576,,,0,BGSH,1
BGTT1,"Bergeronnettes",,47.23956731,-1.60125310,,,0,BGTT,1
BGTT2,"Bergeronnettes",,47.23928085,-1.60035784,,,0,BGTT,1
BGUT1,"Louis Breguet",,47.27201167,-1.46599732,,,0,BGUT,1
BGUT2,"Louis Breguet",,47.27205203,-1.46613912,,,0,BGUT,1
BGVI1,"Bougainville",,47.19897800,-1.58357404,,,0,BGVI,2
BGVI2,"Bougainville",,47.19880455,-1.58337764,,,0,BGVI,2
BHAR1,"Bois Hardy",,47.19828491,-1.60054396,,,0,BHAR,1
BHAR2,"Bois Hardy",,47.19812396,-1.60000881,,,0,BHAR,1
BHLR1,"Basse Hillière",,47.28667516,-1.42687789,,,0,BHLR,2
BIAN1,"Aristide Briand",,47.29642182,-1.49498960,,,0,BIAN,1
BIAN2,"Aristide Briand",,47.29635147,-1.49515533,,,0,BIAN,1
BIEE3,"Belle Île",,47.22371009,-1.73161417,,,0,BIEE,1
BIEE4,"Belle Île",,47.22289203,-1.73054707,,,0,BIEE,1
BIGN1,"Bignons",,47.19972366,-1.49352665,,,0,BIGN,2
BIGN2,"Bignons",,47.19979898,-1.49350957,,,0,BIGN,2
BILE1,"Basse Île",,47.19596508,-1.56213284,,,0,BILE,2
BILE2,"Basse Île",,47.19568871,-1.56324647,,,0,BILE,2
BIND3,"Basse-Indre",,47.19770693,-1.67305608,,,0,BIND,1
BIOT1,"Bigeottière",,47.25604419,-1.61952460,,,0,BIOT,2
BIOT2,"Bigeottière",,47.25587549,-1.61927002,,,0,BIOT,2
BISS1,"Bossis",,47.21256368,-1.71292957,,,0,BISS,2
BISS2,"Bossis",,47.21248221,-1.71219766,,,0,BISS,2
BJLI1,"Bois Jaulin",,47.17755185,-1.63701632,,,0,BJLI,1
BJLI2,"Bois Jaulin",,47.17756340,-1.63678600,,,0,BJLI,1
BJO58,"Beaujoire",,47.25862952,-1.52579264,,,0,BJOI,1
BJOI1,"Beaujoire",,47.25884933,-1.52493010,,,0,BJOI,1
BJOI2,"Beaujoire",,47.25876679,-1.52424813,,,0,BJOI,1
BJOI6,"Beaujoire",,47.25952555,-1.52783915,,,0,BJOI,1
BJOI7,"Beaujoire",,47.25920163,-1.52785674,,,0,BJOI,1
BLCH1,"Blancho",,47.21317010,-1.73498350,,,0,BLCH,2
BLCH2,"Blancho",,47.21328623,-1.73465391,,,0,BLCH,2
BLDR1,"Boulodrome",,47.25762261,-1.51534316,,,0,BLDR,1
BLDR2,"Boulodrome",,47.25834064,-1.51423074,,,0,BLDR,1
BLEM1,"Belem",,47.26561338,-1.45301035,,,0,BLEM,2
BLEM2,"Belem",,47.26546707,-1.45296822,,,0,BLEM,2
BLGO1,"Berligout",,47.21577076,-1.67839838,,,0,BLGO,1
BLGO2,"Berligout",,47.21568713,-1.67854942,,,0,BLGO,1
BLL98,"Bellestre",,47.14841340,-1.69436142,,,0,BLL9,1
BLLE1,"Bellestre",,47.14789342,-1.69400805,,,0,BLLE,1
BLLE2,"Bellestre",,47.14840668,-1.69339574,,,0,BLLE,1
BLNO1,"Bois de La Noé",,47.14188109,-1.67158940,,,0,BLNO,2
BLNO2,"Bois de La Noé",,47.14175942,-1.67143640,,,0,BLNO,2
BLOR1,"Blordière",,47.17994075,-1.53381289,,,0,BLOR,2
BLOR2,"Blordière",,47.18000736,-1.53389432,,,0,BLOR,2
BLSL1,"Bellevue",,47.23532809,-1.47369243,,,0,BLSL,2
BLUA1,"Bélouga",,47.16574918,-1.58366796,,,0,BLUA,1
BLUA2,"Bélouga",,47.16581426,-1.58339671,,,0,BLUA,2
BLVU1,"Mendès France - Bellevue",,47.20853787,-1.61161595,,,0,BLVU,1
BLVU2,"Mendès France - Bellevue",,47.20889327,-1.61131174,,,0,BLVU,1
BLVU3,"Mendès France - Bellevue",,47.20872357,-1.61166402,,,0,BLVU,1
BLVU4,"Mendès France - Bellevue",,47.20897015,-1.61143372,,,0,BLVU,1
BLVU5,"Mendès France - Bellevue",,47.20876514,-1.61137101,,,0,BLVU,1
BLVU6,"Mendès France - Bellevue",,47.20852297,-1.61157784,,,0,BLVU,1
BLVU7,"Mendès France - Bellevue",,47.20807743,-1.61225210,,,0,BLVU,1
BLZZ1,"Berlioz",,47.23950397,-1.57158884,,,0,BLZZ,1
BLZZ3,"Berlioz",,47.23967399,-1.57151530,,,0,BLZZ,1
BNCH1,"Blanchetière",,47.28986488,-1.55588163,,,0,BNCH,2
BNCH2,"Blanchetière",,47.28958384,-1.55614973,,,0,BNCH,2
BNDA1,"Brindais",,47.13908765,-1.71823380,,,0,BNDA,2
BNDA2,"Brindais",,47.13893567,-1.71820118,,,0,BNDA,2
BNET1,"Bignonnet",,47.17551899,-1.46509599,,,0,BNET,2
BNET2,"Bignonnet",,47.17553878,-1.46520570,,,0,BNET,2
BNGL1,"Bénoni Goullin",,47.20150548,-1.55375621,,,0,BNGL,1
BNGL2,"Bénoni Goullin",,47.20167803,-1.55376743,,,0,BNGL,1
BNIE1,"Bournière",,47.25435766,-1.45536860,,,0,BNIE,2
BNLU1,"Bénélux",,47.25408884,-1.49909338,,,0,BNLU,2
BNLU2,"Bénélux",,47.25400217,-1.49918108,,,0,BNLU,2
BNNO1,"Bernanos",,47.20648886,-1.61332175,,,0,BNNO,1
BNNO2,"Bernanos",,47.20616329,-1.61385944,,,0,BNNO,1
BNO58,"Bignon",,47.24926265,-1.59773307,,,0,BNON,2
BNO59,"Bignon",,47.24926265,-1.59773307,,,0,BNON,2
BNON1,"Bignon",,47.24938050,-1.59800100,,,0,BNON,1
BNON2,"Bignon",,47.24908175,-1.59775547,,,0,BNON,1
BNTA1,"BN",,47.18396011,-1.49668431,,,0,BNTA,1
BNTA2,"BN",,47.18466314,-1.49634362,,,0,BNTA,1
BNVI1,"Bonneville",,47.24396902,-1.53647537,,,0,BNVI,2
BNVI2,"Bonneville",,47.24384339,-1.53640808,,,0,BNVI,2
BOCE1,"Centre de Bouguenais",,47.17923473,-1.62188977,,,0,BOCE,1
BOCE2,"Centre de Bouguenais",,47.17935986,-1.62291358,,,0,BOCE,1
BODO1,"Bourdonnières",,47.18722663,-1.52110170,,,0,BODO,1
BODO2,"Bourdonnières",,47.18748604,-1.52069763,,,0,BODO,1
BODO3,"Bourdonnières",,47.18638625,-1.52199103,,,0,BODO,1
BODO4,"Bourdonnières",,47.18637438,-1.52229140,,,0,BODO,1
BOFA1,"Bouffay",,47.21459782,-1.55209491,,,0,BOFA,1
BOFA2,"Bouffay",,47.21456726,-1.55260028,,,0,BOFA,1
BOG58,"Bourgeonnière",,47.25329347,-1.56125502,,,0,BOGE,2
BOGE1,"Bourgeonnière",,47.25325610,-1.56004192,,,0,BOGE,1
BOGE2,"Bourgeonnière",,47.25319668,-1.55953492,,,0,BOGE,1
BOGE3,"Bourgeonnière",,47.25303089,-1.56084300,,,0,BOGE,1
BOGE4,"Bourgeonnière",,47.25294296,-1.56131280,,,0,BOGE,1
BOLL1,"Bois Tillac",,47.20024236,-1.77146521,,,0,BOLL,2
BOLL2,"Bois Tillac",,47.20017883,-1.77127662,,,0,BOLL,2
BOND1,"Bonde",,47.22262419,-1.55189176,,,0,BOND,1
BOND2,"Bonde",,47.22257673,-1.55209719,,,0,BOND,1
BORL1,"Bourrelière",,47.15796459,-1.49893426,,,0,BORL,2
BORL2,"Bourrelière",,47.15833317,-1.49841400,,,0,BORL,2
BOSI1,"Boissière",,47.25528318,-1.56591107,,,0,BOSI,1
BOSI2,"Boissière",,47.25492721,-1.56586392,,,0,BOSI,1
BOSI3,"Boissière",,47.25521779,-1.56576739,,,0,BOSI,2
BOSI4,"Boissière",,47.25485356,-1.56596437,,,0,BOSI,1
BOTI1,"Boutière",,47.15799700,-1.46807489,,,0,BOTI,2
BOTI2,"Boutière",,47.15725341,-1.46809205,,,0,BOTI,2
BOUE1,"Bio Ouest Laënnec",,47.23275471,-1.64188080,,,0,BOUE,2
BOUE2,"Bio Ouest Laënnec",,47.23270183,-1.64200381,,,0,BOUE,2
BOVR1,"Bouvre",,47.17803178,-1.61246001,,,0,BOVR,2
BOVR2,"Bouvre",,47.17826085,-1.61308193,,,0,BOVR,2
BPTY1,"Boulay Paty",,47.22886156,-1.57629050,,,0,BPTY,1
BPTY2,"Boulay Paty",,47.22906261,-1.57469209,,,0,BPTY,2
BRAG1,"Bois Raguenet",,47.26659652,-1.60044334,,,0,BRAG,1
BRAG2,"Bois Raguenet",,47.26682994,-1.60038644,,,0,BRAG,1
BRBI1,"Bois Robillard",,47.23514220,-1.51977766,,,0,BRBI,1
BRBI2,"Bois Robillard",,47.23563803,-1.51989804,,,0,BRBI,1
BRCH1,"Bréchetière",,47.28468842,-1.50339577,,,0,BRCH,2
BRCH2,"Bréchetière",,47.28469698,-1.50367963,,,0,BRCH,2
BRDI1,"Briandière",,47.19052786,-1.69370774,,,0,BRDI,1
BRDI2,"Briandière",,47.18972751,-1.69202220,,,0,BRDI,2
BRET1,"Bretonnière",,47.16650278,-1.46285933,,,0,BRET,2
BRET2,"Bretonnière",,47.16633493,-1.46276026,,,0,BRET,1
BRG78,"Beauregard",,47.21084869,-1.65663742,,,0,BRGA,2
BRGA1,"Beauregard",,47.21072345,-1.65656066,,,0,BRGA,2
BRGA2,"Beauregard",,47.21008737,-1.65713709,,,0,BRGA,1
BRIN1,"Brains",,47.17078527,-1.71899634,,,0,BRIN,2
BRIN2,"Brains",,47.17074859,-1.71880996,,,0,BRIN,2
BRLA1,"Brouillard",,47.27400440,-1.51439208,,,0,BRLA,1
BRLA2,"Brouillard",,47.27315386,-1.51494214,,,0,BRLA,1
BRLN1,"Berlin",,47.21653641,-1.53622373,,,0,BRLN,1
BRLN2,"Berlin",,47.21646814,-1.53597688,,,0,BRLN,1
BRNI1,"Baronnière",,47.25962594,-1.60374682,,,0,BRNI,1
BRNI2,"Baronnière",,47.25953711,-1.60392152,,,0,BRNI,1
BROS1,"Brossais",,47.16259043,-1.58562496,,,0,BROS,2
BROS2,"Brossais",,47.16245679,-1.58560857,,,0,BROS,2
BRTA1,"Bretagne",,47.21743172,-1.55859061,,,0,BRTA,1
BRTA2,"Bretagne",,47.21707070,-1.55818626,,,0,BRTA,1
BRUN1,"Bruneau",,47.22824329,-1.56176187,,,0,BRUN,1
BRUN2,"Bruneau",,47.22796235,-1.56138705,,,0,BRUN,1
BRVI1,"Boris Vian",,47.15338322,-1.68260703,,,0,BRVI,2
BRVI2,"Boris Vian",,47.15314483,-1.68357816,,,0,BRVI,2
BSAN1,"Bobby Sands",,47.22993794,-1.65278132,,,0,BSAN,1
BSAN2,"Bobby Sands",,47.22989006,-1.65301973,,,0,BSAN,1
BSE10,"Beauséjour",,47.23791822,-1.58611247,,,0,BSEJ,1
BSE11,"Beauséjour",,47.23818068,-1.58575746,,,0,BSEJ,1
BSEJ1,"Beauséjour",,47.23829509,-1.58726553,,,0,BSEJ,1
BSEJ2,"Beauséjour",,47.23799685,-1.58681914,,,0,BSEJ,1
BSEJ3,"Beauséjour",,47.23795080,-1.58682237,,,0,BSEJ,1
BSEJ4,"Beauséjour",,47.23811486,-1.58713593,,,0,BSEJ,1
BSEJ5,"Beauséjour",,47.23828103,-1.58744039,,,0,BSEJ,1
BSEJ6,"Beauséjour",,47.23832155,-1.58714977,,,0,BSEJ,1
BSEJ7,"Beauséjour",,47.23824329,-1.58701443,,,0,BSEJ,1
BSEJ9,"Beauséjour",,47.23801391,-1.58655590,,,0,BSEJ,1
BSNI1,"Bussonnière",,47.26894613,-1.44305606,,,0,BSNI,1
BSNI2,"Bussonnière",,47.26972299,-1.44372625,,,0,BSNI,1
BSOL1,"Beau Soleil",,47.17765429,-1.64463825,,,0,BSOL,2
BSOL2,"Beau Soleil",,47.17752041,-1.64436806,,,0,BSOL,2
BSTI1,"Bastière",,47.14843303,-1.45940479,,,0,BSTI,2
BSTI2,"Bastière",,47.14902552,-1.45932664,,,0,BSTI,2
BSYS1,"Bois St-Lys",,47.30037659,-1.48191096,,,0,BSYS,1
BSYS2,"Bois St-Lys",,47.30028294,-1.48207373,,,0,BSYS,1
BTAI1,"Bretinais",,47.22181316,-1.66588313,,,0,BTAI,2
BTAI2,"Bretinais",,47.22170279,-1.66574133,,,0,BTAI,2
BTEC1,"Bretéché",,47.22593127,-1.54751529,,,0,BTEC,1
BTEC2,"Bretéché",,47.22529184,-1.54860985,,,0,BTEC,1
BTIE1,"Bottière",,47.24021318,-1.51836596,,,0,BTIE,1
BTIE2,"Bottière",,47.24024468,-1.51815135,,,0,BTIE,1
BTLE1,"Bouteillerie",,47.22148019,-1.54350501,,,0,BTLE,1
BTLE2,"Bouteillerie",,47.22169095,-1.54280905,,,0,BTLE,1
BTRA1,"Bertrand",,47.25712536,-1.57563141,,,0,BTRA,1
BTRA2,"Bertrand",,47.25703154,-1.57579520,,,0,BTRA,1
BUGA1,"Bugallière",,47.25996309,-1.63765446,,,0,BUGA,1
BUGA2,"Bugallière",,47.25989992,-1.63789321,,,0,BUGA,1
BULA1,"Butte des Landes",,47.16038055,-1.49421494,,,0,BULA,2
BULA2,"Butte des Landes",,47.16077942,-1.49378527,,,0,BULA,2
BUON1,"Bougon",,47.17418788,-1.61066406,,,0,BUON,2
BUON3,"Bougon",,47.17434038,-1.61073474,,,0,BUON,2
BUSS1,"Buisson",,47.26060509,-1.48742297,,,0,BUSS,2
BUSS2,"Buisson",,47.25993503,-1.48761317,,,0,BUSS,2
BVDI1,"Bouvardière",,47.23848469,-1.59837766,,,0,BVDI,2
BVDI2,"Bouvardière",,47.23835837,-1.59841068,,,0,BVDI,2
BVER1,"Bouvernière",,47.23762328,-1.61163942,,,0,BVER,1
BVER2,"Bouvernière",,47.23805748,-1.61145327,,,0,BVER,1
BVOI1,"Beauvoir",,47.17850340,-1.63120572,,,0,BVOI,2
BVOI2,"Beauvoir",,47.17846824,-1.63068395,,,0,BVOI,2
BVOI3,"Beauvoir",,47.17897519,-1.62631982,,,0,BVOI,1
BVOI4,"Beauvoir",,47.17884915,-1.62668434,,,0,BVOI,1
BYCE1,"Centre de Bouaye",,47.14397178,-1.69176169,,,0,BYCE,1
BYCE2,"Centre de Bouaye",,47.14389569,-1.69169656,,,0,BYCE,1
BYGA1,"Gare de Bouaye",,47.13838428,-1.68083896,,,0,BYGA,2
BYGA2,"Gare de Bouaye",,47.13846442,-1.68083969,,,0,BYGA,2
BYTO1,"Bouaye Coteaux",,47.16441304,-1.67924951,,,0,BYTO,2
BYTO2,"Bouaye Coteaux",,47.16477865,-1.67886486,,,0,BYTO,2
BZAR1,"Buzardières",,47.20725278,-1.65963116,,,0,BZAR,1
BZAR2,"Buzardières",,47.20678592,-1.65997695,,,0,BZAR,1
CABR1,"Cabrol",,47.20325820,-1.58859645,,,0,CABR,1
CABR2,"Cabrol",,47.20421760,-1.58827430,,,0,CABR,1
CACE1,"Centre de Carquefou",,47.29714506,-1.49012870,,,0,CACE,1
CACE2,"Centre de Carquefou",,47.29710045,-1.49133814,,,0,CACE,1
CACE3,"Centre de Carquefou",,47.29655836,-1.49092862,,,0,CACE,1
CADO1,"Cadoire",,47.25671175,-1.48804666,,,0,CADO,2
CADO2,"Cadoire",,47.25676518,-1.48811927,,,0,CADO,2
CAGE1,"Chalonges",,47.27613635,-1.42939758,,,0,CAGE,2
CAHL1,"Charlière",,47.32101197,-1.55055505,,,0,CAHL,2
CAHL2,"Charlière",,47.32083025,-1.55025441,,,0,CAHL,2
CAIO1,"Caillou Blanc",,47.29864722,-1.58556896,,,0,CAIO,1
CAIO2,"Caillou Blanc",,47.29895860,-1.58531115,,,0,CAIO,1
CALI1,"Californie",,47.19188530,-1.58422921,,,0,CALI,2
CALI2,"Californie",,47.19119700,-1.58439284,,,0,CALI,2
CALI3,"Californie",,47.19086120,-1.58531429,,,0,CALI,2
CANC1,"Canclaux",,47.21387447,-1.57474631,,,0,CANC,1
CANC2,"Canclaux",,47.21383536,-1.57489018,,,0,CANC,1
CANC3,"Canclaux",,47.21488652,-1.57470265,,,0,CANC,1
CANC4,"Canclaux",,47.21535767,-1.57477940,,,0,CANC,1
CAPE1,"Capellia",,47.27977047,-1.55491868,,,0,CAPE,1
CAPE2,"Capellia",,47.27967710,-1.55496349,,,0,CAPE,1
CARQ1,"Carquefou",,47.30370254,-1.48536605,,,0,CARQ,2
CARQ2,"Carquefou",,47.30367916,-1.48558284,,,0,CARQ,1
CAST1,"Castorama",,47.25913049,-1.50831863,,,0,CAST,2
CAST2,"Castorama",,47.25896592,-1.50696007,,,0,CAST,2
CATI1,"Cartier",,47.26820359,-1.45550147,,,0,CATI,1
CATI2,"Cartier",,47.26751933,-1.45560508,,,0,CATI,2
CAUX1,"Château d'Aux",,47.18525897,-1.67387561,,,0,CAUX,1
CAUX2,"Château d'Aux",,47.18504936,-1.67425627,,,0,CAUX,1
CAUX3,"Château d'Aux",,47.18534810,-1.67454951,,,0,CAUX,1
CAUX4,"Château d'Aux",,47.18489247,-1.67446780,,,0,CAUX,2
CBAC1,"Bac de Couëron",,47.20598337,-1.75170597,,,0,CBAC,2
CBEA1,"Charbonneau",,47.30063419,-1.48851987,,,0,CBEA,1
CBEA2,"Charbonneau",,47.30062970,-1.49080200,,,0,CBEA,1
CBEA3,"Charbonneau",,47.30089630,-1.48841022,,,0,CBEA,2
CBGE1,"Chapeau Berger",,47.17101690,-1.46882696,,,0,CBGE,1
CBGE2,"Chapeau Berger",,47.17166378,-1.46882010,,,0,CBGE,1
CBGE3,"Chapeau Berger",,47.17185800,-1.46705753,,,0,CBGE,1
CBIN1,"Corbinerie",,47.16146599,-1.54222457,,,0,CBIN,1
CBIN2,"Corbinerie",,47.16160499,-1.54213560,,,0,CBIN,1
CBLE1,"Chemin Bleu",,47.17822438,-1.52497724,,,0,CBLE,1
CBLE2,"Chemin Bleu",,47.17833645,-1.52512667,,,0,CBLE,1
CBOU1,"Couëron Bougon",,47.22507921,-1.73401375,,,0,CBOU,1
CBRD1,"Claude Bernard",,47.22304901,-1.61174831,,,0,CBRD,1
CBRD2,"Claude Bernard",,47.22316702,-1.61193154,,,0,CBRD,1
CBSS1,"Cambronne",,47.20655438,-1.50636601,,,0,CBSS,1
CBSS2,"Cambronne",,47.20660534,-1.50645822,,,0,CBSS,1
CBTE1,"Choblèterie",,47.13620886,-1.46142133,,,0,CBTE,2
CBTE2,"Choblèterie",,47.13621557,-1.46159998,,,0,CBTE,2
CCAN1,"Couchant",,47.26848778,-1.59960347,,,0,CCAN,2
CCD99,"Cochardières",,47.22992265,-1.63318757,,,0,CCDI,2
CCDI1,"Cochardières",,47.22992076,-1.63319007,,,0,CCDI,1
CCDI2,"Cochardières",,47.22908017,-1.63439971,,,0,CCDI,2
CCDI3,"Cochardières",,47.22980058,-1.63416891,,,0,CCDI,2
CCHA1,"Couchant",,47.27020292,-1.51366167,,,0,CCHA,1
CCHA2,"Couchant",,47.27009278,-1.51388529,,,0,CCHA,1
CCOU1,"Champ de Courses",,47.24451408,-1.56122079,,,0,CCOU,1
CCOU2,"Champ de Courses",,47.24499010,-1.56192605,,,0,CCOU,1
CCRE1,"Chêne Creux",,47.17045652,-1.54876905,,,0,CCRE,1
CCRE2,"Chêne Creux",,47.16999256,-1.54839859,,,0,CCRE,2
CDAN1,"Chêne des Anglais",,47.26147784,-1.57351956,,,0,CDAN,1
CDAN2,"Chêne des Anglais",,47.26138541,-1.57300476,,,0,CDAN,1
CDAN3,"Chêne des Anglais",,47.26153847,-1.57308607,,,0,CDAN,1
CDAN4,"Chêne des Anglais",,47.26150091,-1.57366281,,,0,CDAN,1
CDAN5,"Chêne des Anglais",,47.26141504,-1.57454825,,,0,CDAN,1
CDAN6,"Chêne des Anglais",,47.26110215,-1.57479790,,,0,CDAN,1
CDCO1,"Cité des Congrès",,47.21371062,-1.54501681,,,0,CDCO,1
CDCO2,"Cité des Congrès",,47.21349749,-1.54495376,,,0,CDCO,1
CDMA1,"Champ de Manoeuvre",,47.27269353,-1.50072902,,,0,CDMA,1
CDMA2,"Champ de Manoeuvre",,47.27230007,-1.49991344,,,0,CDMA,2
CECE1,"Centre de La Chapelle",,47.29913684,-1.54842829,,,0,CECE,2
CECE2,"Centre de La Chapelle",,47.29896725,-1.54865029,,,0,CECE,2
CEDR1,"Cèdre",,47.29944073,-1.56025341,,,0,CEDR,2
CEDR2,"Cèdre",,47.29940943,-1.55976656,,,0,CEDR,2
CEER1,"Chapellerie",,47.28290704,-1.42315171,,,0,CEER,2
CEGA1,"Gare de La Chapelle",,47.29586473,-1.54896610,,,0,CEGA,2
CEGA2,"Gare de La Chapelle",,47.29577043,-1.54906515,,,0,CEGA,2
CELL3,"Le Cellier",,47.32676240,-1.34800097,,,0,CELL,2
CFOI1,"Champ de Foire",,47.12423159,-1.61892105,,,0,CFOI,1
CFOI2,"Champ de Foire",,47.12460773,-1.61856478,,,0,CFOI,1
CGAU1,"Cimetière Gaudinière",,47.24289239,-1.58288922,,,0,CGAU,1
CGAU2,"Cimetière Gaudinière",,47.24311497,-1.58272698,,,0,CGAU,1
CGLA1,"Chêne Gala",,47.18316762,-1.53920230,,,0,CGLA,1
CGLA2,"Chêne Gala",,47.18392541,-1.53980805,,,0,CGLA,1
CHAB1,"Chabossière",,47.21547801,-1.68242961,,,0,CHAB,2
CHAB2,"Chabossière",,47.21532409,-1.68216819,,,0,CHAB,2
CHBE1,"Chambelles",,47.23162916,-1.53062861,,,0,CHBE,1
CHBE2,"Chambelles",,47.23206155,-1.53137787,,,0,CHBE,1
CHER1,"La Cochère",,47.20271109,-1.77821459,,,0,CHER,2
CHER2,"La Cochère",,47.20271109,-1.77821459,,,0,CHER,2
CHER3,"La Cochère",,47.20041546,-1.77830108,,,0,CHER,2
CHFL1,"Champ Fleuri",,47.14378619,-1.52472062,,,0,CHFL,1
CHFL2,"Champ Fleuri",,47.14409184,-1.52567728,,,0,CHFL,1
CHGN1,"Châtaigniers",,47.22158519,-1.60185563,,,0,CHGN,1
CHGN2,"Châtaigniers",,47.22171128,-1.60185565,,,0,CHGN,1
CHGN3,"Châtaigniers",,47.22208237,-1.60280446,,,0,CHGN,1
CHGN4,"Châtaigniers",,47.22212314,-1.60295554,,,0,CHGN,1
CHIN1,"La Chesnaie",,47.28175065,-1.53742452,,,0,CHIN,1
CHIN2,"La Chesnaie",,47.28167117,-1.53759214,,,0,CHIN,1
CHLI1,"Cholière",,47.25089792,-1.60668303,,,0,CHLI,1
CHLI2,"Cholière",,47.25099949,-1.60671565,,,0,CHLI,1
CHME1,"Charmes",,47.19080176,-1.46099838,,,0,CHME,1
CHME2,"Charmes",,47.19109240,-1.46111544,,,0,CHME,1
CHNI1,"Charbonnière",,47.26369070,-1.64229005,,,0,CHNI,1
CHNI2,"Charbonnière",,47.26383545,-1.64177553,,,0,CHNI,1
CHOC1,"Chocolaterie",,47.24287374,-1.52770038,,,0,CHOC,1
CHOC2,"Chocolaterie",,47.24276681,-1.52801535,,,0,CHOC,1
CHPO1,"Champonnière",,47.16403580,-1.50606698,,,0,CHPO,2
CHPO2,"Champonnière",,47.16352336,-1.50568819,,,0,CHPO,2
CHRE1,"Chalâtres",,47.23185115,-1.53783116,,,0,CHRE,1
CHRE2,"Chalâtres",,47.23102500,-1.53877622,,,0,CHRE,1
CHSS1,"Chaussée",,47.17665780,-1.52100989,,,0,CHSS,1
CHSS2,"Chaussée",,47.17723962,-1.52205834,,,0,CHSS,1
CHTE1,"Châtelets",,47.19688142,-1.54053237,,,0,CHTE,2
CHTE2,"Châtelets",,47.19716701,-1.54058346,,,0,CHTE,2
CHVE1,"Chauvais",,47.33740081,-1.57166574,,,0,CHVE,2
CHVE2,"Chauvais",,47.33678097,-1.57361432,,,0,CHVE,2
CHZY1,"Chanzy",,47.22414608,-1.54489751,,,0,CHZY,1
CHZY2,"Chanzy",,47.22360468,-1.54546241,,,0,CHZY,1
CIGL1,"Chai Gallais",,47.13692602,-1.72162518,,,0,CIGL,1
CIGL2,"Chai Gallais",,47.13700078,-1.72157408,,,0,CIGL,1
CIVL1,"Circuit du Vallon",,47.27364742,-1.44741776,,,0,CIVL,2
CJOS1,"Cimetière St-Joseph",,47.26853105,-1.52065319,,,0,CJOS,1
CJOS2,"Cimetière St-Joseph",,47.26818374,-1.52158608,,,0,CJOS,1
CLAM1,"Clos Ami",,47.21215380,-1.65549491,,,0,CLAM,1
CLAM2,"Clos Ami",,47.21222086,-1.65566514,,,0,CLAM,1
CLBO1,"Clos Bonnet",,47.18943855,-1.56392208,,,0,CLBO,2
CLBO2,"Clos Bonnet",,47.19036028,-1.56502908,,,0,CLBO,2
CLET1,"Clétras",,47.25544747,-1.51078671,,,0,CLET,2
CLET2,"Clétras",,47.25586218,-1.51158380,,,0,CLET,2
CLGE1,"Chalonges",,47.18968324,-1.47125451,,,0,CLGE,1
CLGE2,"Chalonges",,47.18915535,-1.47262002,,,0,CLGE,1
CLGE3,"Chalonges",,47.18920845,-1.47234900,,,0,CLGE,1
CLGE4,"Chalonges",,47.18982658,-1.47239431,,,0,CLGE,1
CLGE5,"Chalonges",,47.18989002,-1.47270930,,,0,CLGE,1
CLMO1,"Cimetière La Montagne",,47.18747211,-1.68655669,,,0,CLMO,1
CLMO2,"Cimetière La Montagne",,47.18732581,-1.68649020,,,0,CLMO,1
CLNA1,"Colonac",,47.22507475,-1.60282256,,,0,CLNA,1
CLNA2,"Colonac",,47.22417649,-1.60317287,,,0,CLNA,1
CLOT1,"Clotais",,47.19314551,-1.71842177,,,0,CLOT,1
CLOT2,"Clotais",,47.19301110,-1.71822262,,,0,CLOT,1
CLPT1,"Clépettre",,47.29704365,-1.54789610,,,0,CLPT,1
CLPT2,"Clépettre",,47.29667711,-1.54706585,,,0,CLPT,1
CLRO1,"Clos Roux",,47.19866249,-1.75092464,,,0,CLRO,2
CLRO2,"Clos Roux",,47.19812679,-1.74954625,,,0,CLRO,2
CLSE1,"Closeaux",,47.23915156,-1.62799671,,,0,CLSE,1
CLSE2,"Closeaux",,47.23931980,-1.62784519,,,0,CLSE,1
CLTT1,"Châlet",,47.22997714,-1.54414257,,,0,CLTT,1
CLTT2,"Châlet",,47.22942048,-1.54451867,,,0,CLTT,1
CLUE1,"Clouet",,47.16748940,-1.51085257,,,0,CLUE,2
CLUE2,"Clouet",,47.16705758,-1.51035271,,,0,CLUE,2
CLZE1,"Clouzeaux",,47.17931163,-1.49260400,,,0,CLZE,1
CLZE2,"Clouzeaux",,47.17944718,-1.49261766,,,0,CLZE,2
CMAR1,"Cirque - Marais",,47.21805370,-1.55724257,,,0,CMAR,1
CMAR2,"Cirque - Marais",,47.21814731,-1.55708414,,,0,CMAR,1
CMCI1,"Clémencière",,47.26948770,-1.43572725,,,0,CMCI,1
CMCI2,"Clémencière",,47.26952687,-1.43552097,,,0,CMCI,1
CMLL1,"Charmille",,47.25716925,-1.60594969,,,0,CMLL,1
CMLL2,"Charmille",,47.25707866,-1.60617584,,,0,CMLL,1
CMNE1,"Commune 1871",,47.19914124,-1.50006830,,,0,CMNE,1
CMNE2,"Commune 1871",,47.19932642,-1.49967325,,,0,CMNE,1
CMOU1,"Clos du Moulin",,47.14513510,-1.52115717,,,0,CMOU,1
CMOU2,"Clos du Moulin",,47.14516318,-1.52131364,,,0,CMOU,1
CMRA1,"Cormerais",,47.19475932,-1.62707891,,,0,CMRA,1
CMRA2,"Cormerais",,47.19468879,-1.62695608,,,0,CMRA,1
CMSY1,"Carrière Misery",,47.19982789,-1.58022151,,,0,CMSY,2
CMSY2,"Carrière Misery",,47.20009943,-1.57904276,,,0,CMSY,2
CMUS1,"Camus",,47.21916021,-1.57268578,,,0,CMUS,1
CMUS2,"Camus",,47.21928251,-1.57285071,,,0,CMUS,1
CNAV1,"Chantiers Navals",,47.20891551,-1.56730464,,,0,CNAV,1
CNAV2,"Chantiers Navals",,47.20884925,-1.56779810,,,0,CNAV,1
CNAV4,"Chantiers Navals",,47.20896996,-1.56779765,,,0,CNAV,1
CNCE1,"Chenonceau",,47.27263470,-1.43447667,,,0,CNCE,2
CNGO1,"Congo",,47.24067949,-1.60913535,,,0,CNGO,1
CNGO2,"Congo",,47.23962095,-1.61014171,,,0,CNGO,1
CNLA1,"Canal",,47.21601332,-1.47195205,,,0,CNLA,1
CNLA2,"Canal",,47.21612339,-1.47178276,,,0,CNLA,1
CNNT1,"Chemin Nantais",,47.28869640,-1.43370965,,,0,CNNT,2
CNON1,"Chinon",,47.27413636,-1.42900524,,,0,CNON,2
CNON2,"Chinon",,47.27415244,-1.42923000,,,0,CNON,2
CNTR1,"Centaure",,47.17000083,-1.62698833,,,0,CNTR,1
CNTR2,"Centaure",,47.17000334,-1.62715098,,,0,CNTR,1
CNVR1,"Chêne Vert",,47.28625856,-1.43946571,,,0,CNVR,2
COAY1,"Corlay",,47.20794484,-1.64414014,,,0,COAY,1
COAY2,"Corlay",,47.20802991,-1.64425882,,,0,COAY,1
COCH1,"Cochard",,47.22454537,-1.54961991,,,0,COCH,1
COCH2,"Cochard",,47.22402387,-1.55052864,,,0,COCH,1
COET1,"Les Couëts",,47.18082453,-1.58622108,,,0,COET,1
COET2,"Les Couëts",,47.18069157,-1.58668691,,,0,COET,1
COHO1,"Chohonnière",,47.26314626,-1.48602114,,,0,COHO,2
COHO2,"Chohonnière",,47.26339680,-1.48604303,,,0,COHO,2
COLI1,"Colinière",,47.23587021,-1.50836278,,,0,COLI,1
COLI2,"Colinière",,47.23562856,-1.50866805,,,0,COLI,1
COLI3,"Colinière",,47.23655083,-1.50799252,,,0,COLI,1
COMB2,"Commerce",,47.21354486,-1.55623236,,,0,COMM,1
COMC1,"Commerce",,47.21358587,-1.55592472,,,0,COMM,1
COME1,"Commerce",,47.21476115,-1.55600758,,,0,COMM,1
COME2,"Commerce",,47.21434554,-1.55572619,,,0,COMM,1
COME3,"Commerce",,47.21446117,-1.55574253,,,0,COMM,1
COMF1,"Commerce",,47.21446533,-1.55551283,,,0,COMM,1
CONI1,"Corniche",,47.25262913,-1.59438669,,,0,CONI,1
CONI2,"Corniche",,47.25285439,-1.59475380,,,0,CONI,2
CORA1,"Conraie",,47.26082892,-1.58825020,,,0,CORA,1
CORA2,"Conraie",,47.26089554,-1.58840988,,,0,CORA,1
COST1,"Cousteau",,47.23986299,-1.51291605,,,0,COST,1
COST2,"Cousteau",,47.23979839,-1.51317853,,,0,COST,1
COTA1,"Coutancière",,47.30617449,-1.56007737,,,0,COTA,1
COUD1,"Coudray",,47.23254250,-1.54236776,,,0,COUD,1
COUD2,"Coudray",,47.23214764,-1.54248589,,,0,COUD,1
CP3R1,"Chapelles",,47.16356526,-1.53851259,,,0,CP3R,2
CP3R2,"Chapelles",,47.16518847,-1.53968391,,,0,CP3R,1
CP4L1,"Chapelle Laënnec",,47.23535037,-1.63778655,,,0,CP4L,1
CPER1,"Copernic - Musées",,47.21487371,-1.56447835,,,0,CPER,1
CPER2,"Copernic - Musées",,47.21487992,-1.56477358,,,0,CPER,1
CPGT1,"Capitaine Grant",,47.26146100,-1.66713455,,,0,CPGT,1
CPGT2,"Capitaine Grant",,47.26176872,-1.66947834,,,0,CPGT,1
CPRE1,"Chaupières",,47.24314729,-1.49505252,,,0,CPRE,1
CPRE2,"Chaupières",,47.24232408,-1.49502659,,,0,CPRE,1
CPTE1,"Chapelet",,47.13205641,-1.64156579,,,0,CPTE,1
CPTE2,"Chapelet",,47.13245429,-1.64225001,,,0,CPTE,1
CQGU1,"Chat qui Guette",,47.19198192,-1.69745773,,,0,CQGU,1
CQGU2,"Chat qui Guette",,47.19195370,-1.69713186,,,0,CQGU,1
CQLU1,"Coqueluchon",,47.18380011,-1.47038954,,,0,CQLU,2
CQLU2,"Coqueluchon",,47.18410989,-1.47025437,,,0,CQLU,2
CRA99,"Clairais",,47.27556043,-1.43858807,,,0,CRAI,1
CRAI1,"Clairais",,47.27555119,-1.43856757,,,0,CRAI,1
CRBE1,"Corberie",,47.15204168,-1.52410370,,,0,CRBE,1
CRBE2,"Corberie",,47.15245718,-1.52396069,,,0,CRBE,1
CRCE1,"Courocerie",,47.25177254,-1.49936106,,,0,CRCE,1
CRCE2,"Courocerie",,47.25162021,-1.49931045,,,0,CRCE,1
CREZ1,"Château de Rezé",,47.18468756,-1.55926244,,,0,CREZ,1
CREZ2,"Château de Rezé",,47.18481208,-1.55976164,,,0,CREZ,1
CRME1,"Crémetterie",,47.21823787,-1.60765992,,,0,CRME,1
CRME2,"Crémetterie",,47.21827419,-1.60833549,,,0,CRME,1
CRNO1,"Corbon",,47.21234967,-1.46133423,,,0,CRNO,2
CRNO2,"Corbon",,47.21335549,-1.46090204,,,0,CRNO,2
CROU1,"Chemin Rouge",,47.25157842,-1.51760872,,,0,CROU,2
CROU2,"Chemin Rouge",,47.25188213,-1.51760284,,,0,CROU,2
CRPO1,"Criport",,47.15788894,-1.50358065,,,0,CRPO,2
CRPO2,"Criport",,47.15833439,-1.50356505,,,0,CRPO,2
CRQU1,"Place du Cirque",,47.21711901,-1.55710316,,,0,CRQU,1
CRQU2,"Place du Cirque",,47.21679358,-1.55703188,,,0,CRQU,1
CRQU3,"Place du Cirque",,47.21666940,-1.55684175,,,0,CRQU,1
CRQU4,"Place du Cirque",,47.21684228,-1.55673668,,,0,CRQU,1
CRRO1,"Claire Roman",,47.15470775,-1.59132362,,,0,CRRO,2
CRRO2,"Claire Roman",,47.15470375,-1.59149366,,,0,CRRO,2
CRSA1,"Croissant",,47.24042307,-1.53052133,,,0,CRSA,1
CRSA2,"Croissant",,47.24103597,-1.52997054,,,0,CRSA,1
CRTI1,"Crétinières",,47.27715351,-1.55346690,,,0,CRTI,1
CRTI2,"Crétinières",,47.27652377,-1.55320535,,,0,CRTI,1
CRVA1,"Cravate",,47.24334138,-1.58840955,,,0,CRVA,1
CRVA2,"Cravate",,47.24324309,-1.58825421,,,0,CRVA,1
CSAY1,"Chassay",,47.24567197,-1.48473224,,,0,CSAY,2
CSAY2,"Chassay",,47.24583840,-1.48481952,,,0,CSAY,1
CSCL1,"Cimetière St-Clair",,47.21659616,-1.59238548,,,0,CSCL,1
CSCL2,"Cimetière St-Clair",,47.21681960,-1.59370400,,,0,CSCL,1
CSGR1,"Cassegrain",,47.18762325,-1.48746483,,,0,CSGR,2
CSGR2,"Cassegrain",,47.18788729,-1.48960280,,,0,CSGR,2
CSHB1,"Carrières",,47.20819025,-1.63823158,,,0,CSHB,1
CSHB2,"Carrières",,47.20822281,-1.63804499,,,0,CSHB,1
CSIB1,"Clos Siban",,47.21016184,-1.64590316,,,0,CSIB,1
CSIB2,"Clos Siban",,47.21023072,-1.64641190,,,0,CSIB,1
CSMP1,"Casimir Perier",,47.23146954,-1.56889139,,,0,CSMP,2
CSMP2,"Casimir Perier",,47.23120464,-1.56865519,,,0,CSMP,2
CSMP3,"Casimir Perier",,47.23197587,-1.56824870,,,0,CSMP,2
CSRI1,"Classerie",,47.16803208,-1.55875992,,,0,CSRI,1
CSRI2,"Classerie",,47.16818325,-1.55876431,,,0,CSRI,1
CSTA1,"Collège Ste-Anne",,47.29496382,-1.49243602,,,0,CSTA,2
CSTE1,"Casterneau",,47.22715488,-1.53274448,,,0,CSTE,1
CSTE2,"Casterneau",,47.22708303,-1.53271152,,,0,CSTE,1
CSVA2,"Conservatoire",,47.20706463,-1.53272573,,,0,CSVA,1
CSVA3,"Conservatoire",,47.20704483,-1.53302035,,,0,CSVA,1
CTAR1,"Cotalard",,47.28631385,-1.53778319,,,0,CTAR,1
CTAR2,"Cotalard",,47.28617298,-1.53779415,,,0,CTAR,1
CTBO1,"Coteaux",,47.18461412,-1.67017282,,,0,CTBO,1
CTBO2,"Coteaux",,47.18438813,-1.66923766,,,0,CTBO,1
CTEU1,"Caboteurs",,47.18642432,-1.58724712,,,0,CTEU,2
CTEU2,"Caboteurs",,47.18646655,-1.58743518,,,0,CTEU,2
CTIE1,"Châtelier",,47.18466462,-1.59313067,,,0,CTIE,2
CTIE2,"Châtelier",,47.18484934,-1.59326049,,,0,CTIE,2
CTLI1,"Courteline",,47.23642701,-1.58692349,,,0,CTLI,1
CTLI2,"Courteline",,47.23661613,-1.58692414,,,0,CTLI,1
CTNS1,"Carterons",,47.21821277,-1.73941293,,,0,CTNS,1
CTNS2,"Carterons",,47.21824433,-1.73918265,,,0,CTNS,1
CTOR1,"Clos Toreau",,47.19433390,-1.52910194,,,0,CTOR,1
CTOR2,"Clos Toreau",,47.19411520,-1.52907028,,,0,CTOR,1
CTOR3,"Clos Toreau",,47.19412260,-1.52930601,,,0,CTOR,2
CTRE1,"Chantrerie - Grandes Écoles",,47.28181592,-1.51699719,,,0,CTRE,1
CTRE2,"Chantrerie - Grandes Écoles",,47.28163711,-1.51695782,,,0,CTRE,1
CTRE3,"Chantrerie - Grandes Écoles",,47.28241046,-1.51815313,,,0,CTRE,1
CTRE4,"Chantrerie - Grandes Écoles",,47.28219447,-1.51806740,,,0,CTRE,1
CTYY1,"Coty",,47.24901468,-1.48800397,,,0,CTYY,1
CTYY2,"Coty",,47.24901846,-1.48827010,,,0,CTYY,1
CUGA1,"Gare de Couëron",,47.22187115,-1.72429751,,,0,CUGA,1
CUGA2,"Gare de Couëron",,47.22167517,-1.72390317,,,0,CUGA,1
CUIE1,"Chausserie",,47.14942648,-1.70423348,,,0,CUIE,1
CUIE2,"Chausserie",,47.14912899,-1.70406051,,,0,CUIE,1
CUPI1,"Coupries",,47.19179085,-1.46702459,,,0,CUPI,2
CUPI2,"Coupries",,47.19158639,-1.46729809,,,0,CUPI,2
CURI1,"Curie",,47.19043615,-1.48699726,,,0,CURI,2
CURI2,"Curie",,47.19052929,-1.48742009,,,0,CURI,2
CUVI1,"Cuvier",,47.21073923,-1.57408225,,,0,CUVI,2
CUVI2,"Cuvier",,47.21039847,-1.57321538,,,0,CUVI,2
CVBL1,"Cheveux Blancs",,47.26553292,-1.63504250,,,0,CVBL,2
CVBL2,"Cheveux Blancs",,47.26545709,-1.63504746,,,0,CVBL,2
CVDO1,"Cimetière Vieux Doulon",,47.23849235,-1.50040266,,,0,CVDO,1
CVDO2,"Cimetière Vieux Doulon",,47.23848075,-1.50061605,,,0,CVDO,1
CVER1,"Chapeau Verni",,47.18932680,-1.51168230,,,0,CVER,1
CVER2,"Chapeau Verni",,47.18917298,-1.51035533,,,0,CVER,1
CVER3,"Chapeau Verni",,47.18905054,-1.50927505,,,0,CVER,2
CVER4,"Chapeau Verni",,47.18915303,-1.50898383,,,0,CVER,2
CVLE1,"Chevalerie",,47.25221480,-1.54517072,,,0,CVLE,1
CVLE2,"Chevalerie",,47.25230159,-1.54529475,,,0,CVLE,2
CVNI1,"Chauvinière",,47.25146581,-1.57206508,,,0,CVNI,1
CVNI2,"Chauvinière",,47.25159865,-1.57210522,,,0,CVNI,1
CVRN1,"Cheverny",,47.24600502,-1.60479714,,,0,CVRN,1
CVRN2,"Cheverny",,47.24544637,-1.60546226,,,0,CVRN,1
CVTI1,"Convention",,47.21141270,-1.58659602,,,0,CVTI,1
CVTI2,"Convention",,47.21153282,-1.58645414,,,0,CVTI,1
CXFS1,"Croix des Fosses",,47.21318784,-1.46642296,,,0,CXFS,1
CXFS2,"Croix des Fosses",,47.21333948,-1.46635840,,,0,CXFS,1
CZIN1,"Chézine",,47.23375586,-1.59901753,,,0,CZIN,2
CZIN2,"Chézine",,47.23373473,-1.59932012,,,0,CZIN,2
DAKK1,"Danemark",,47.26096703,-1.49857486,,,0,DAKK,2
DAKK2,"Danemark",,47.26190702,-1.49649643,,,0,DAKK,2
DAKK3,"Danemark",,47.26174097,-1.49748205,,,0,DAKK,2
DALB1,"Dalby",,47.22513188,-1.52982307,,,0,DALB,2
DALB2,"Dalby",,47.22569407,-1.52920001,,,0,DALB,1
DANU1,"Danube",,47.30449077,-1.50178212,,,0,DANU,1
DANU2,"Danube",,47.30435233,-1.50107043,,,0,DANU,1
DAVU1,"Davum",,47.26498319,-1.49599200,,,0,DAVU,2
DAVU2,"Davum",,47.26471035,-1.49623440,,,0,DAVU,2
DAYA1,"Dayat",,47.20080952,-1.67423351,,,0,DAYA,1
DAYA2,"Dayat",,47.20197925,-1.67711382,,,0,DAYA,2
DCAN1,"Duchesse Anne - Château",,47.21629106,-1.54712738,,,0,DCAN,1
DCAN2,"Duchesse Anne - Château",,47.21620349,-1.54756121,,,0,DCAN,1
DCAN3,"Duchesse Anne - Château",,47.21628489,-1.54682951,,,0,DCAN,1
DCAN4,"Duchesse Anne - Château",,47.21603612,-1.54696875,,,0,DCAN,1
DCF58,"Du Chaffault",,47.20756176,-1.58184631,,,0,DCFF,1
DCF59,"Du Chaffault",,47.20756625,-1.58171447,,,0,DCFF,1
DCFF1,"Du Chaffault",,47.20747473,-1.58157163,,,0,DCFF,1
DCFF2,"Du Chaffault",,47.20764712,-1.58198473,,,0,DCFF,1
DEM99,"Desmoulins",,47.23265511,-1.52121679,,,0,DEMO,2
DEMO1,"Desmoulins",,47.23227708,-1.52225923,,,0,DEMO,1
DEMO2,"Desmoulins",,47.23346032,-1.52126958,,,0,DEMO,1
DERV1,"Dervallières",,47.22883772,-1.59805271,,,0,DERV,1
DERV2,"Dervallières",,47.22879629,-1.59831675,,,0,DERV,1
DGLE1,"De Gaulle",,47.30101333,-1.55304118,,,0,DGLE,2
DGLE2,"De Gaulle",,47.30079228,-1.55289268,,,0,DGLE,2
DIAN1,"Diane",,47.23964010,-1.57811601,,,0,DIAN,2
DIAN2,"Diane",,47.23973604,-1.57799608,,,0,DIAN,2
DIDE1,"Espace Diderot",,47.18446244,-1.56229519,,,0,DIDE,1
DIDE2,"Espace Diderot",,47.18443305,-1.56281754,,,0,DIDE,1
DIDE3,"Espace Diderot",,47.18448466,-1.56299568,,,0,DIDE,2
DIDE4,"Espace Diderot",,47.18377456,-1.56295320,,,0,DIDE,1
DIDE5,"Espace Diderot",,47.18449942,-1.56349086,,,0,DIDE,1
DLCR1,"Delacroix",,47.22365838,-1.58924196,,,0,DLCR,1
DLCR2,"Delacroix",,47.22364517,-1.58941815,,,0,DLCR,1
